address,agr_type,Calculate,id,name,region,sameness,sameness_group,source,type,counter,lat,lon,original_address,points,reffers_to,category
"Байкальская ул., 236",Культурно-познавательный туризм,Культурно-познавательный,140,Бэста,Иркутск,0,1,все_yandex_отфильровано_обединено_нормировано_25_03_2024.csv,зооцентр;клуб любителей животных;гостиница для животных,1,52.253408,104.327605,1,Point,,Другое
"ул. Урицкого, 14",Культурно-познавательный туризм,Культурно-познавательный,145,Иркутский городской клуб любителей кошек Камея,Иркутск,0,1,все_yandex_отфильровано_обединено_нормировано_25_03_2024.csv,зооцентр;клуб любителей животных,1,52.283538,104.291531,1,Point,,Другое
"Иркутская область, Слюдянский район, рабочий посёлок Култук, Р-258 Байкал, 97-й километр",Культурно-познавательный туризм,Культурно-познавательный,556,Смотровая площадка,Слюдянский,0,1,все_yandex_отфильровано_обединено_нормировано_25_03_2024.csv,смотровая площадка,1,51.732038,103.711048,1,Point,,Другое
"Иркутская область, Слюдянский район, Байкальское муниципальное образование, Байкальск",Культурно-познавательный туризм,Культурно-познавательный,557,Смотровая площадка,Слюдянский,0,1,все_yandex_отфильровано_обединено_нормировано_25_03_2024.csv,смотровая площадка,1,51.526638,104.133163,1,Point,,Другое
"Иркутский район, Листвянское муниципальное образование, рабочий посёлок Листвянка",Культурно-познавательный туризм,Культурно-познавательный,558,Смотровая площадка,Иркутский,0,1,все_yandex_отфильровано_обединено_нормировано_25_03_2024.csv,смотровая площадка,1,51.861237,104.852909,1,Point,,Другое
"Иркутский район, Листвянское муниципальное образование, рабочий посёлок Листвянка",Культурно-познавательный туризм,Культурно-познавательный,559,Смотровая площадка,Иркутский,0,1,все_yandex_отфильровано_обединено_нормировано_25_03_2024.csv,смотровая площадка,1,51.841356,104.885252,1,Point,,Другое
"Иркутский район, Листвянское муниципальное образование",Культурно-познавательный туризм,Культурно-познавательный,560,Смотровая площадка,Иркутский,0,1,все_yandex_отфильровано_обединено_нормировано_25_03_2024.csv,смотровая площадка,1,51.90791,105.077333,1,Point,,Другое
"Иркутская область, Ольхонский район",Культурно-познавательный туризм,Культурно-познавательный,561,Смотровая площадка,Ольхонский,0,1,все_yandex_отфильровано_обединено_нормировано_25_03_2024.csv,смотровая площадка,1,53.153462,106.95805,1,Point,,Другое
"Иркутск, предместье Глазково",Культурно-познавательный туризм,Культурно-познавательный,562,Глазково,Иркутск,0,1,все_yandex_отфильровано_обединено_нормировано_25_03_2024.csv,смотровая площадка,1,52.275198,104.262614,1,Point,,Другое
"Иркутская область, Ангарск",Культурно-познавательный туризм,Культурно-познавательный,563,Смотровая площадка,Ангарский,0,1,все_yandex_отфильровано_обединено_нормировано_25_03_2024.csv,смотровая площадка,1,52.537396,103.859786,1,Point,,Другое
"Иркутская область, Слюдянский район, Новоснежнинское муниципальное образование, Р-258 Байкал, 162-й километр",Культурно-познавательный туризм,Культурно-познавательный,564,Смотровая площадка,Слюдянский,0,1,все_yandex_отфильровано_обединено_нормировано_25_03_2024.csv,смотровая площадка,1,51.479887,104.340999,1,Point,,Другое
"Иркутская область, Слюдянский район, Новоснежнинское муниципальное образование",Культурно-познавательный туризм,Культурно-познавательный,565,Смотровая площадка,Слюдянский,0,1,все_yandex_отфильровано_обединено_нормировано_25_03_2024.csv,смотровая площадка,1,51.467054,104.408884,1,Point,,Другое
"Иркутская область, Ангарск, СНТ Этилен",Культурно-познавательный туризм,Культурно-познавательный,566,Смотровая площадка,Ангарский,0,1,все_yandex_отфильровано_обединено_нормировано_25_03_2024.csv,смотровая площадка,1,52.63545,103.932857,1,Point,,Другое
"Иркутская область, Усолье-Сибирское, остров Варничный",Культурно-познавательный туризм,Культурно-познавательный,567,Смотровая площадка,не обнаружено,0,1,все_yandex_отфильровано_обединено_нормировано_25_03_2024.csv,смотровая площадка,1,52.761059,103.674101,1,Point,,Другое
"Иркутская область, Шелеховский район, Шаманское муниципальное образование, Шаманский утёс",Культурно-познавательный туризм,Культурно-познавательный,568,Смотровая площадка,Шелеховский,0,1,все_yandex_отфильровано_обединено_нормировано_25_03_2024.csv,смотровая площадка,1,52.085738,103.852707,1,Point,,Другое
"Иркутская область, Усольский район, Тайтурское муниципальное образование",Культурно-познавательный туризм,Культурно-познавательный,569,Утес на скалах,Усольский,0,1,все_yandex_отфильровано_обединено_нормировано_25_03_2024.csv,смотровая площадка,1,52.900908,103.296188,1,Point,,Другое
"Иркутская область, Черемховский район, Узколугское муниципальное образование",Культурно-познавательный туризм,Культурно-познавательный,570,Марьин Утёс,Черемховский,0,1,все_yandex_отфильровано_обединено_нормировано_25_03_2024.csv,смотровая площадка,1,52.901447,103.255601,1,Point,,Другое
"Иркутская область, Усолье-Сибирское, парк Вся соль Сибири, аллея Любви",Культурно-познавательный туризм,Культурно-познавательный,571,Смотровая площадка,не обнаружено,0,1,все_yandex_отфильровано_обединено_нормировано_25_03_2024.csv,смотровая площадка,1,52.739323,103.663805,1,Point,,Другое
"Иркутский район, Листвянское муниципальное образование, рабочий посёлок Листвянка",Культурно-познавательный туризм,Культурно-познавательный,572,Смотровая площадка,Иркутский,0,1,все_yandex_отфильровано_обединено_нормировано_25_03_2024.csv,смотровая площадка,1,51.875581,104.829226,1,Point,,Другое
"Иркутская область, Черемховский район, Зерновское муниципальное образование",Культурно-познавательный туризм,Культурно-познавательный,573,Смотровая площадка,Черемховский,1,1,все_yandex_отфильровано_обединено_нормировано_25_03_2024.csv,смотровая площадка,1,53.053813,103.33196,1,Point,,Другое
"Иркутская область, роща Синюшина гора",Культурно-познавательный туризм,Культурно-познавательный,574,Синюшина гора,Иркутск,0,1,все_yandex_отфильровано_обединено_нормировано_25_03_2024.csv,смотровая площадка,1,52.271099,104.192316,1,Point,,Другое
"Иркутский район, Уриковское муниципальное образование",Культурно-познавательный туризм,Культурно-познавательный,575,Смотровая площадка,Иркутский,0,1,все_yandex_отфильровано_обединено_нормировано_25_03_2024.csv,смотровая площадка,1,52.410114,104.192007,1,Point,,Другое
"26А, Ершовский микрорайон",Культурно-познавательный туризм,Культурно-познавательный,576,Пик Любви,Иркутск,0,1,все_yandex_отфильровано_обединено_нормировано_25_03_2024.csv,смотровая площадка,1,52.220571,104.315317,1,Point,,Другое
"Иркутск, Кировский район",Культурно-познавательный туризм,Культурно-познавательный,577,Смотровая площадка,Иркутск,0,1,все_yandex_отфильровано_обединено_нормировано_25_03_2024.csv,смотровая площадка,1,52.292719,104.279736,1,Point,,Другое
"Иркутская область, Бодайбинский район",Культурно-познавательный туризм,Культурно-познавательный,578,Смотровая площадка,Бодайбинский,1,1,все_yandex_отфильровано_обединено_нормировано_25_03_2024.csv,смотровая площадка,1,57.864479,114.213628,1,Point,,Другое
"Иркутская область, Бодайбинский район",Культурно-познавательный туризм,Культурно-познавательный,579,Мамаканская ГЭС,Бодайбинский,0,1,все_yandex_отфильровано_обединено_нормировано_25_03_2024.csv,смотровая площадка,1,57.809088,114.032382,1,Point,,Другое
"Иркутская область, городской округ Братск",Культурно-познавательный туризм,Культурно-познавательный,580,Смотровая площадка,Братск,0,1,все_yandex_отфильровано_обединено_нормировано_25_03_2024.csv,смотровая площадка,1,56.28462,101.79224,1,Point,,Другое
"Иркутская область, Слюдянский район, Маритуйское муниципальное образование",Культурно-познавательный туризм,Культурно-познавательный,581,Смотровая площадка,Слюдянский,0,1,все_yandex_отфильровано_обединено_нормировано_25_03_2024.csv,смотровая площадка,1,51.750497,103.984509,1,Point,,Другое
"Иркутская область, городской округ Братск, Северный Артек",Культурно-познавательный туризм,Культурно-познавательный,582,Смотровая площадка,Братск,0,1,все_yandex_отфильровано_обединено_нормировано_25_03_2024.csv,смотровая площадка,1,56.172044,101.670329,1,Point,,Другое
"Иркутская область, городской округ Братск",Культурно-познавательный туризм,Культурно-познавательный,583,Смотровая площадка,Братск,0,1,все_yandex_отфильровано_обединено_нормировано_25_03_2024.csv,смотровая площадка,1,56.197313,101.636954,1,Point,,Другое
"Иркутский район, Листвянское муниципальное образование, рабочий посёлок Листвянка, Дендропарк Байкальского музея",Культурно-познавательный туризм,Культурно-познавательный,584,Смотровая площадка,Иркутский,0,1,все_yandex_отфильровано_обединено_нормировано_25_03_2024.csv,смотровая площадка,1,51.867297,104.834471,1,Point,,Другое
"ул. Горького, 85А, рабочий посёлок Листвянка",Культурно-познавательный туризм,Культурно-познавательный,585,Панорамный зал,Иркутский,0,1,все_yandex_отфильровано_обединено_нормировано_25_03_2024.csv,смотровая площадка,1,51.847342,104.872913,1,Point,,Другое
"Иркутская область, Слюдянский район, Портбайкальское муниципальное образование",Культурно-познавательный туризм,Культурно-познавательный,586,Камень желаний,Слюдянский,0,1,все_yandex_отфильровано_обединено_нормировано_25_03_2024.csv,смотровая площадка,1,51.872647,104.810569,1,Point,,Другое
"Иркутская область, Слюдянский район, Байкальское муниципальное образование, Байкальск, Внезапная тропа",Культурно-познавательный туризм,Культурно-познавательный,587,Смотровая площадка,Слюдянский,0,1,все_yandex_отфильровано_обединено_нормировано_25_03_2024.csv,смотровая площадка,1,51.527616,104.170386,1,Point,,Другое
"Иркутская область, Слюдянский район, Маритуйское муниципальное образование, поселок Уланово",Культурно-познавательный туризм,Культурно-познавательный,588,Смотровая площадка,Слюдянский,0,1,все_yandex_отфильровано_обединено_нормировано_25_03_2024.csv,смотровая площадка,1,51.795377,104.515174,1,Point,,Другое
"Иркутская область, Слюдянский район, Портбайкальское муниципальное образование",Культурно-познавательный туризм,Культурно-познавательный,589,Старый маяк,Слюдянский,0,1,все_yandex_отфильровано_обединено_нормировано_25_03_2024.csv,смотровая площадка,1,51.872584,104.806131,1,Point,,Другое
"Иркутская область, Киренский район",Культурно-познавательный туризм,Культурно-познавательный,590,Смотровая площадка,Киренский,0,1,все_yandex_отфильровано_обединено_нормировано_25_03_2024.csv,смотровая площадка,1,57.777504,108.130975,1,Point,,Другое
"Иркутская область, Ольхонский район, мыс Крест",Культурно-познавательный туризм,Культурно-познавательный,591,Смотровая площадка,Ольхонский,0,1,все_yandex_отфильровано_обединено_нормировано_25_03_2024.csv,смотровая площадка,1,52.99005,106.923566,1,Point,,Другое
"Иркутская область, Качугский район, деревня Чанчур",Культурно-познавательный туризм,Культурно-познавательный,592,Станция наблюдения,Качугский,0,1,все_yandex_отфильровано_обединено_нормировано_25_03_2024.csv,смотровая площадка,1,53.823858,106.994512,1,Point,,Другое
"Иркутская область, Нижнеилимский район, карьер Коршуновский",Культурно-познавательный туризм,Культурно-познавательный,593,Смотровая площадка,Нижнеилимский,0,1,все_yandex_отфильровано_обединено_нормировано_25_03_2024.csv,смотровая площадка,1,56.545686,104.145952,1,Point,,Другое
"Иркутская область, Усть-Илимск",Культурно-познавательный туризм,Культурно-познавательный,594,Толстый мыс,Усть-Илимский,0,1,все_yandex_отфильровано_обединено_нормировано_25_03_2024.csv,смотровая площадка,1,57.97128,102.684214,1,Point,,Другое
"Иркутская область, Усть-Илимск",Культурно-познавательный туризм,Культурно-познавательный,595,Смотровая площадка,Усть-Илимский,0,1,все_yandex_отфильровано_обединено_нормировано_25_03_2024.csv,смотровая площадка,1,57.97142,102.660864,1,Point,,Другое
"Иркутская область, Нижнеудинское муниципальное образование",Культурно-познавательный туризм,Культурно-познавательный,596,Смотровая площадка,Нижнеудинский,0,1,все_yandex_отфильровано_обединено_нормировано_25_03_2024.csv,смотровая площадка,1,54.907995,99.065621,1,Point,,Другое
"Иркутская область, 25Н-426",Культурно-познавательный туризм,Культурно-познавательный,597,Белый камень,Тайшетский,0,1,все_yandex_отфильровано_обединено_нормировано_25_03_2024.csv,смотровая площадка,1,56.041556,97.913123,1,Point,,Другое
"Иркутская область, Ольхонский район, остров Ольхон",Культурно-познавательный туризм,Культурно-познавательный,598,Обзорная беседка,Ольхонский,0,1,все_yandex_отфильровано_обединено_нормировано_25_03_2024.csv,смотровая площадка,1,53.167235,107.315793,1,Point,,Другое
"Иркутская область, Ольхонский район, остров Огой",Культурно-познавательный туризм,Культурно-познавательный,599,Смотровая площадка,Ольхонский,0,1,все_yandex_отфильровано_обединено_нормировано_25_03_2024.csv,смотровая площадка,1,53.12871,106.998229,1,Point,,Другое
"Иркутская область, Ольхонский район, остров Ольхон",Культурно-познавательный туризм,Культурно-познавательный,600,Смотровая площадка,Ольхонский,0,1,все_yandex_отфильровано_обединено_нормировано_25_03_2024.csv,смотровая площадка,1,53.064984,106.912123,1,Point,,Другое
"Иркутская область, Ольхонский район, остров Ольхон",Культурно-познавательный туризм,Культурно-познавательный,601,Смотровая площадка,Ольхонский,0,1,все_yandex_отфильровано_обединено_нормировано_25_03_2024.csv,смотровая площадка,1,53.203992,107.342953,1,Point,,Другое
"Иркутская область, Ольхонский район, остров Ольхон",Культурно-познавательный туризм,Культурно-познавательный,602,Шаманка,Ольхонский,0,1,все_yandex_отфильровано_обединено_нормировано_25_03_2024.csv,смотровая площадка,1,53.204121,107.341687,1,Point,,Другое
,Культурно-познавательный туризм,Культурно-познавательный,604,Смотровая площадка,Ольхонский,0,1,все_yandex_отфильровано_обединено_нормировано_25_03_2024.csv,смотровая площадка,1,52.732261,106.546499,1,Point,,Другое
"Иркутская область, Ольхонский район, мыс Хобой",Культурно-познавательный туризм,Культурно-познавательный,605,Смотровая площадка,Ольхонский,0,1,все_yandex_отфильровано_обединено_нормировано_25_03_2024.csv,смотровая площадка,1,53.411476,107.789103,1,Point,,Другое
"Иркутская область, Ольхонский район, Еланцынское муниципальное образование",Культурно-познавательный туризм,Культурно-познавательный,606,Смотровая площадка,Ольхонский,0,1,все_yandex_отфильровано_обединено_нормировано_25_03_2024.csv,смотровая площадка,1,52.782866,106.609443,1,Point,,Другое
"Иркутская область, Слюдянский район, Портбайкальское муниципальное образование",Культурно-познавательный туризм,Культурно-познавательный,607,Смотровая площадка,Слюдянский,0,1,все_yandex_отфильровано_обединено_нормировано_25_03_2024.csv,смотровая площадка,1,51.856891,104.717192,1,Point,,Другое
"Иркутская обл., п. Листвянка",Сельский туризм,Сельский,765,Усадьба Тюрюминых,Иркутский,0,1,Сельский_туризм_Паспорт_туризма_2019.xlsx,Не определен,1,51.868781,104.868891,1,Point,,Другое
"Иркутская обл., Слюдянский район, г.Байкальск",Сельский туризм,Сельский,766,Вепское поместье,Слюдянский,0,1,Сельский_туризм_Паспорт_туризма_2019.xlsx,Не определен,1,51.513478,104.127665,1,Point,,Другое
"Иркутская обл., г. Братск",Сельский туризм,Сельский,767,"Конный клуб «Фаворит""",Братск,0,1,Сельский_туризм_Паспорт_туризма_2019.xlsx,Не определен,1,56.334075,101.771249,1,Point,,Другое
"Иркутская обл., г. Братск",Сельский туризм,Сельский,768,Усадьба «Конный мир»,Братск,0,1,Сельский_туризм_Паспорт_туризма_2019.xlsx,Не определен,1,56.290904,101.653333,1,Point,,Другое
"Иркутская обл., г. Братск",Сельский туризм,Сельский,769,Клуб верховой езды «Конный двор»,Братск,0,1,Сельский_туризм_Паспорт_туризма_2019.xlsx,Не определен,1,56.074761,101.728494,1,Point,,Другое
"Иркутская обл., г. Братск, Пихтовая, 77 ст2",Сельский туризм,Сельский,770,Кролиководческая ферма ООО «Радуга»,Братск,0,1,Сельский_туризм_Паспорт_туризма_2019.xlsx,Не определен,1,56.154773,101.572793,1,Point,,Другое
"Иркутская обл., с. Баяндай",Сельский туризм,Сельский,771,Баяндаевский этнографический музей,Баяндаевский,0,1,Сельский_туризм_Паспорт_туризма_2019.xlsx,Не определен,1,53.050495,105.523378,1,Point,,Другое
"Иркутская обл., д. Тургеневка",Сельский туризм,Сельский,772,Туристский маршрут «Сила села!»,Баяндаевский,0,1,Сельский_туризм_Паспорт_туризма_2019.xlsx,Не определен,1,53.027447,105.664331,1,Point,,Другое
"Иркутская обл., Нижнеудинский р-н, с. Алыгджер",Сельский туризм,Сельский,773,Гостевой дом «Тофаларская усадьба»,Нижнеудинский,0,1,Сельский_туризм_Паспорт_туризма_2019.xlsx,Не определен,1,53.634009,98.21747,1,Point,,Другое
"Иркутская обл., Усольский р-н",Сельский туризм,Сельский,774,Спасская слобода,Усольский,0,1,Сельский_туризм_Паспорт_туризма_2019.xlsx,Не определен,1,52.835151,103.675339,1,Point,,Другое
"Иркутская обл., Боханский р-н",Сельский туризм,Сельский,775,Сибирский марал,Боханский,0,1,Сельский_туризм_Паспорт_туризма_2019.xlsx,Не определен,1,53.246315,104.421947,1,Point,,Другое
"Иркутская обл., Боханский р-н, д. Вершина",Сельский туризм,Сельский,776,д. Вершина,Боханский,0,1,Сельский_туризм_Паспорт_туризма_2019.xlsx,Не определен,1,53.24737,104.42008,1,Point,,Другое
"Иркутская обл., Осинский р-н",Сельский туризм,Сельский,777,ферма Хандагай,Осинский,0,1,Сельский_туризм_Паспорт_туризма_2019.xlsx,Не определен,1,53.7440165,104.0915864,1,Point,,Другое
"Иркутская обл., Иркутский р-н, с. Бугульдейка",Сельский туризм,Сельский,778,экоотель «Имение Заречное»,Ольхонский,0,1,Сельский_туризм_Паспорт_туризма_2019.xlsx,Не определен,1,52.55235,106.062207,1,Point,,Другое
"Иркутская обл., Эхирит-Булагатский р-н, пос. Усть-Ордынский ",Сельский туризм,Сельский,779,пос. Усть-Ордынский,Эхирит-Булагатский,0,1,Сельский_туризм_Паспорт_туризма_2019.xlsx,Не определен,1,52.806936,104.740938,1,Point,,Другое
"Иркутская обл., Заларинский р-н, д. Тагна",Сельский туризм,Сельский,780,д. Тагна,Заларинский,0,1,Сельский_туризм_Паспорт_туризма_2019.xlsx,Не определен,1,53.585795,101.885553,1,Point,,Другое
"Иркутская обл., Заларинский р-н, с. Черемшанка",Сельский туризм,Сельский,781,с. Черемшанка,Тайшетский,0,1,Сельский_туризм_Паспорт_туризма_2019.xlsx,Не определен,1,56.096068,97.475788,1,Point,,Другое
"Иркутская обл., Заларинский р-н, с. Хор-Тагна",Сельский туризм,Сельский,782,с. Хор-Тагна,Заларинский,0,1,Сельский_туризм_Паспорт_туризма_2019.xlsx,Не определен,1,53.416573,101.544815,1,Point,,Другое
"Иркутская обл., с. Хомутово, ул. Колхозная 135/1.",Сельский туризм,Сельский,783,Сыроварня Милаша,Иркутский,0,1,Сельский_туризм_Паспорт_туризма_2019.xlsx,Не определен,1,52.46394,104.360928,1,Point,,Другое
"Иркутская обл., Зиминский р-он, с.Кимильтей, Набережная ул. 52А",Сельский туризм,Сельский,784,туристическая деревня Отрадное,Зиминский,0,1,Сельский_туризм_Паспорт_туризма_2019.xlsx,Не определен,1,54.14193,102.00153,1,Point,,Другое
"Иркутская область, г. Свирск",Культурно-познавательный туризм,Культурно-познавательный,952,Свирская Ривьера,Черемховский,0,1,Памятники Здания_координаты.xlsx,,1,53.074,103.347446,1,Point,,Другое
"Иркутская область, г. Свирск, ул. Мира",Культурно-познавательный туризм,Культурно-познавательный,953,Смотровая площадка «Лебеди»,Черемховский,2,0,Памятники Здания_координаты.xlsx,,0,53.053813,103.33196,1,Point,573.0,Другое
"Иркутская область, г. Свирск",Культурно-познавательный туризм,Культурно-познавательный,954,Смотровая площадка «Орёл»,Черемховский,0,1,Памятники Здания_координаты.xlsx,,1,53.053813,103.33196,1,Point,,Другое
"Иркутская область, г. Свирск",Культурно-познавательный туризм,Культурно-познавательный,955,"Сквер ""Творимир""",Черемховский,0,1,Памятники Здания_координаты.xlsx,,1,53.072904,103.347737,1,Point,,Другое
"Иркутская область, г. Свирск",Культурно-познавательный туризм,Культурно-познавательный,956,Парк культуры и отдыха,Черемховский,1,1,Памятники Здания_координаты.xlsx,,1,53.072904,103.347737,1,Point,,Другое
"Россия, Иркутская область, село Аларь",Активный туризм,Активный,2394,Стадион,Аларский,0,1,Спорт OpenTripMap.xlsx,"sport,stadiums",1,53.06768,102.544632,0,Point,,Другое
"Россия, Иркутская область, Ангарск",Активный туризм,Активный,2374,"Ермак, стадион",Ангарский,0,1,Спорт OpenTripMap.xlsx,"sport,stadiums",1,52.50518,103.841324,0,Point,,Другое
"Россия, Иркутская область, Ангарский городской округ, посёлок Мегет",Активный туризм,Активный,2396,25/1,Ангарский,0,1,Спорт OpenTripMap.xlsx,"sport,stadiums",1,52.423344,104.043106,0,Point,,Другое
"Россия, Иркутская область, Братск, жилой район Гидростроитель",Активный туризм,Активный,2420,Городской стадион,Братск,0,1,Спорт OpenTripMap.xlsx,"sport,stadiums",1,56.281063,101.866608,0,Point,,Другое
"Россия, Иркутская область, Братск, жилой район Осиновка",Активный туризм,Активный,2422,стадион Локомотив,Братск,0,1,Спорт OpenTripMap.xlsx,"sport,stadiums",1,56.279701,101.900269,0,Point,,Другое
"Россия, Иркутская область, Братск, жилой район Энергетик, Юбилейная улица",Активный туризм,Активный,2379,"Лыжная база ""Снежинка""",Братск,0,1,Спорт OpenTripMap.xlsx,"winter_sports,other_winter_sports,sport",1,56.316231,101.756004,0,Point,,Другое
"Россия, Иркутская область, Братский район, Зябинское муниципальное образование, канатная дорога Орехов Камень",Активный туризм,Активный,2378,Matera,Братский,0,1,Спорт OpenTripMap.xlsx,"winter_sports,skiing,sport",1,56.474831,101.972359,0,Point,,Другое
"Россия, Иркутская область, рабочий посёлок Жигалово",Активный туризм,Активный,2419,Стадион,Жигаловский,0,1,Спорт OpenTripMap.xlsx,"sport,stadiums",1,54.8036,105.152466,0,Point,,Другое
"Россия, Иркутск, Байкальская улица",Активный туризм,Активный,2415,бассейн Газпром,Иркутск,0,1,Спорт OpenTripMap.xlsx,"sport,stadiums",1,52.256611,104.350479,0,Point,,Другое
"Россия, Иркутск, Кировский район",Активный туризм,Активный,2375,"Стадион ""Труд""",Иркутск,0,1,Спорт OpenTripMap.xlsx,"sport,stadiums",1,52.276318,104.282112,0,Point,,Другое
"Россия, Иркутск, Кировский район",Активный туризм,Активный,2434,Стадион на Мопра,Иркутск,0,1,Спорт OpenTripMap.xlsx,"sport,stadiums",1,52.291302,104.293716,0,Point,,Другое
"Россия, Иркутск, Ленинский округ",Активный туризм,Активный,2407,Иркут-Зенит,Иркутск,0,1,Спорт OpenTripMap.xlsx,"sport,stadiums",1,52.353508,104.227264,0,Point,,Другое
"Россия, Иркутск, Октябрьский округ",Активный туризм,Активный,2413,Дерт-Парк велосипед,Иркутск,0,1,Спорт OpenTripMap.xlsx,"sport,stadiums",1,52.24242,104.373993,0,Point,,Другое
"Россия, Иркутск, Октябрьский округ",Активный туризм,Активный,2404,Кроссовая трасса,Иркутск,0,1,Спорт OpenTripMap.xlsx,"sport,stadiums",1,52.241714,104.372116,0,Point,,Другое
"Россия, Иркутск, Октябрьский округ",Активный туризм,Активный,2412,Эндуро-Трасса,Иркутск,0,1,Спорт OpenTripMap.xlsx,"sport,stadiums",1,52.241474,104.36721,0,Point,,Другое
"Россия, Иркутск, микрорайон Первомайский",Активный туризм,Активный,2403,поле,Иркутск,0,1,Спорт OpenTripMap.xlsx,"sport,stadiums",1,52.25264,104.238052,0,Point,,Другое
"Россия, Иркутск, улица Лермонтова",Активный туризм,Активный,2409,Ледовый дворец,Иркутск,0,1,Спорт OpenTripMap.xlsx,"sport,stadiums",1,52.25251,104.266434,0,Point,,Другое
"Россия, Иркутский район, Ушаковское муниципальное образование, село Пивовариха, Степная улица",Активный туризм,Активный,2417,37,Иркутский,0,1,Спорт OpenTripMap.xlsx,"sport,stadiums",1,52.27121,104.439491,0,Point,,Другое
"Россия, Иркутский район, Хомутовское муниципальное образование",Активный туризм,Активный,2387,"Рекорд (стадион, Иркутск)",Иркутский,0,1,Спорт OpenTripMap.xlsx,"sport,stadiums",1,52.437222,104.334999,0,Point,,Другое
"Россия, Иркутский район, посёлок Молодёжный",Активный туризм,Активный,2414,4/1,Иркутский,0,1,Спорт OpenTripMap.xlsx,"sport,stadiums",1,52.248852,104.408234,0,Point,,Другое
"Россия, Иркутский район, Листвянское муниципальное образование, рабочий посёлок Листвянка, территория Горнолыжный комплекс Истлэнд",Активный туризм,Активный,2382,Nikola,Иркутский,0,1,Спорт OpenTripMap.xlsx,"winter_sports,skiing,sport",1,51.876354,104.842735,0,Point,,Другое
"Россия, Иркутская область, Киренск, микрорайон Мельничный",Активный туризм,Активный,2427,Стадион,Киренский,0,1,Спорт OpenTripMap.xlsx,"sport,stadiums",1,57.789635,108.107796,0,Point,,Другое
"Россия, Иркутская область, Железногорск-Илимский",Активный туризм,Активный,2424,Стадион,Нижнеилимский,0,1,Спорт OpenTripMap.xlsx,"sport,stadiums",1,56.571735,104.125473,0,Point,,Другое
"Россия, Иркутская область, Железногорск-Илимский",Активный туризм,Активный,2384,Гора Восточная,Нижнеилимский,0,1,Спорт OpenTripMap.xlsx,"winter_sports,skiing,sport",1,56.594479,104.128609,0,Point,,Другое
"Россия, Иркутская область, Слюдянский район, Байкальское муниципальное образование, Байкальск, микрорайон Красный Ключ, Горнолыжный курорт Гора Соболиная",Активный туризм,Активный,2380,Baykal’sk,Слюдянский,0,1,Спорт OpenTripMap.xlsx,"winter_sports,skiing,sport",1,51.500656,104.117355,0,Point,,Другое
"Россия, Иркутская область, Тулунский район, Писаревское муниципальное образование, посёлок Центральные Мастерские",Активный туризм,Активный,2391,Урожай,Тулунский,0,1,Спорт OpenTripMap.xlsx,"sport,stadiums",1,54.596912,100.523384,0,Point,,Другое
"Россия, Иркутская область, Усольский район, Белореченское городское муниципальное образование, село Мальта",Активный туризм,Активный,2399,Школьный стадион,Усольский,0,1,Спорт OpenTripMap.xlsx,"sport,stadiums",1,52.833401,103.51902,0,Point,,Другое
"Россия, Иркутская область, Усть-Илимск, улица Ленина",Активный туризм,Активный,2432,Олимпиец,Усть-Илимский,0,1,Спорт OpenTripMap.xlsx,"sport,pools",1,57.987938,102.673424,0,Point,,Другое
"Россия, Иркутская область, Усть-Кут, улица Речников",Активный туризм,Активный,2425,Нептун,Усть-Кутский,0,1,Спорт OpenTripMap.xlsx,"sport,pools",1,56.794319,105.776207,0,Point,,Другое
"Россия, Иркутская область, Усть-Кутский район, Верхнемарковское муниципальное образование, вахтовый посёлок Яракта",Активный туризм,Активный,2426,Спортзал,Усть-Кутский,0,1,Спорт OpenTripMap.xlsx,"sport,stadiums",1,57.988136,106.791916,0,Point,,Другое
"Россия, Иркутская область, Шелеховский район, Олхинское муниципальное образование, деревня Олха, территория Горнолыжный Комплекс Олха",Активный туризм,Активный,2383,Olkha,Шелеховский,0,1,Спорт OpenTripMap.xlsx,"winter_sports,skiing,sport",1,52.150688,104.095833,0,Point,,Другое
"Россия, Иркутская область, Шелеховский район, Подкаменское муниципальное образование",Активный туризм,Активный,2381,Rassokha,Шелеховский,0,1,Спорт OpenTripMap.xlsx,"winter_sports,skiing,sport",1,51.972183,104.123886,0,Point,,Другое
"Россия, Иркутская область, Усолье-Сибирское, Фестивальный проезд",Активный туризм,Активный,2402,Чайка,не обнаружено,0,1,Спорт OpenTripMap.xlsx,"sport,pools",1,52.758335,103.642769,0,Point,,Другое
"Россия, Иркутская область, Ангарск, улица Коминтерна",Культурно-познавательный туризм,Культурно-познавательный,1324,Выставочный зал,Ангарский,0,1,coords_total_museums_1.csv,Не определен,1,52.517892,103.873328,0,Point,,Другое
"Россия, Иркутская область, Братск, жилой район Падун, улица Гидростроителей",Культурно-познавательный туризм,Культурно-познавательный,1319,Музей истории политической ссылки,Братск,0,1,coords_total_museums_1.csv,Не определен,1,56.291296,101.726238,0,Point,,Другое
"Россия, Иркутск, проспект Маршала Жукова",Культурно-познавательный туризм,Культурно-познавательный,1340,Иркутский областной краеведческий музей – Ледокол «Ангара»,Иркутск,0,1,coords_total_museums_1.csv,Не определен,1,52.250143,104.343884,0,Point,,Другое
"Россия, Иркутск, проспект Маршала Жукова",Культурно-познавательный туризм,Культурно-познавательный,1349,Музей оптических иллюзий «Фантаст»,Иркутск,0,1,coords_total_museums_1.csv,Не определен,1,52.250077,104.343825,0,Point,,Другое
"Россия, Иркутск, улица Лермонтова",Культурно-познавательный туризм,Культурно-познавательный,1350,Музей занимательной Науки «Экспериментарий»,Иркутск,0,1,coords_total_museums_1.csv,Не определен,1,52.24507,104.271487,0,Point,,Другое
"Россия, Иркутская область, Саянск, микрорайон Юбилейный",Культурно-познавательный туризм,Культурно-познавательный,1312,Музейно-выставочный комплекс г. Саянска,Саянск,0,1,coords_total_museums_1.csv,Не определен,1,54.102018,102.155745,0,Point,,Другое
"Россия, Иркутская область, Слюдянка, Слюдяная улица",Культурно-познавательный туризм,Культурно-познавательный,1314,Музей политической ссылки,Слюдянский,0,1,coords_total_museums_1.csv,Не определен,1,51.638257,103.698108,0,Point,,Другое
"Россия, Иркутская область, Свирск, улица Хасановских Боёв",Культурно-познавательный туризм,Культурно-познавательный,1316,Музей истории г. Свирска,Черемховский,0,1,coords_total_museums_1.csv,Не определен,1,53.075992,103.338605,0,Point,,Другое
"Россия, Иркутск, предместье Глазково",Культурно-познавательный туризм,Культурно-познавательный,1353,Глазковский некрополь,Иркутск,0,1,Археология OpenTripMap.xlsx,"historic,archaeology,interesting_places,other_archaeological_sites",1,52.288055,104.251663,0,Point,,Другое
"Россия, Иркутская область, Качугское муниципальное образование",Культурно-познавательный туризм,Культурно-познавательный,1359,Шишкинские писаницы,Качугский,0,1,Археология OpenTripMap.xlsx,"historic,archaeology,interesting_places,other_archaeological_sites",1,54.005936,105.711456,0,Point,,Другое
"Россия, Иркутская область, Качугское муниципальное образование",Культурно-познавательный туризм,Культурно-познавательный,1354,Шишкинские писаницы,Качугский,0,1,Археология OpenTripMap.xlsx,"historic,cave_paintings,archaeology,interesting_places",1,54.007027,105.700287,0,Point,,Другое
"Россия, Иркутская область, село Аларь, Советская улица",Культурно-познавательный туризм,Культурно-познавательный,1667,Музей,Аларский,0,1,Культура OpenTripMap.xlsx,"cultural,museums,interesting_places,other_museums",1,53.069653,102.545578,0,Point,,Другое
"Россия, Иркутская область, село Аларь",Культурно-познавательный туризм,Культурно-познавательный,1507,Стадион,Аларский,0,1,Культура OpenTripMap.xlsx,"sport,stadiums",1,53.06768,102.544632,0,Point,,Другое
"Россия, Иркутская область, Ангарск",Культурно-познавательный туризм,Культурно-познавательный,1675,кинотеатр Родина,Ангарский,0,1,Культура OpenTripMap.xlsx,"cinemas,cultural,theatres_and_entertainments,interesting_places",1,52.511639,103.86264,0,Point,,Другое
"Россия, Иркутская область, Ангарск",Культурно-познавательный туризм,Культурно-познавательный,1599,Мирамакс,Ангарский,0,1,Культура OpenTripMap.xlsx,"cultural,cinemas,theatres_and_entertainments,interesting_places",1,52.53606,103.893333,0,Point,,Другое
"Россия, Иркутская область, Ангарск",Культурно-познавательный туризм,Культурно-познавательный,1474,Музей минералов,Ангарский,0,1,Культура OpenTripMap.xlsx,"cultural,museums,interesting_places,other_museums",1,52.542236,103.884735,0,Point,,Другое
"Россия, Иркутская область, Ангарск",Культурно-познавательный туризм,Культурно-познавательный,1514,Зоопарк при Дворце Творчества,Ангарский,0,1,Культура OpenTripMap.xlsx,"cultural,museums,interesting_places,zoos",1,52.542297,103.88076,0,Point,,Другое
"Россия, Иркутская область, Ангарск, Ангарский проспект",Культурно-познавательный туризм,Культурно-познавательный,1510,"Цветочная клумба ""Кувшин""",Ангарский,0,1,Культура OpenTripMap.xlsx,"cultural,urban_environment,interesting_places,installation",1,52.511436,103.879601,0,Point,,Другое
"Россия, Иркутская область, Ангарск, Московская улица",Культурно-познавательный туризм,Культурно-познавательный,1646,Волк,Ангарский,0,1,Культура OpenTripMap.xlsx,"cultural,urban_environment,interesting_places,installation",1,52.539135,103.884361,0,Point,,Другое
"Россия, Иркутская область, Ангарский городской округ, село Савватеевка, Клубная улица",Культурно-познавательный туризм,Культурно-познавательный,1644,деревянные скульптуры,Ангарский,0,1,Культура OpenTripMap.xlsx,"cultural,urban_environment,interesting_places,installation",1,52.328709,103.633072,0,Point,,Другое
"Россия, Иркутская область, Ангарск, Южный массив",Культурно-познавательный туризм,Культурно-познавательный,1651,Ленин,Ангарский,0,1,Культура OpenTripMap.xlsx,"cultural,urban_environment,interesting_places,sculptures",1,52.471767,103.888504,0,Point,,Другое
"Россия, Иркутская область, Ангарск, улица Глинки",Культурно-познавательный туризм,Культурно-познавательный,1423,Ангарский городской выставочный зал,Ангарский,0,1,Культура OpenTripMap.xlsx,"museums,cultural,interesting_places,local_museums,art_galleries",1,52.542259,103.885139,0,Point,,Другое
"Россия, Иркутская область, Ангарск",Культурно-познавательный туризм,Культурно-познавательный,1512,Ангара,Ангарский,0,1,Культура OpenTripMap.xlsx,"sport,stadiums",1,52.540211,103.874947,0,Point,,Другое
"Россия, Иркутская область, Ангарск",Культурно-познавательный туризм,Культурно-познавательный,1379,"Ермак, стадион",Ангарский,0,1,Культура OpenTripMap.xlsx,"sport,stadiums",1,52.50518,103.841324,0,Point,,Другое
"Россия, Иркутская область, Ангарский городской округ, посёлок Мегет",Культурно-познавательный туризм,Культурно-познавательный,1515,25/1,Ангарский,0,1,Культура OpenTripMap.xlsx,"sport,stadiums",1,52.423344,104.043106,0,Point,,Другое
"Россия, Иркутская область, посёлок Балаганск",Культурно-познавательный туризм,Культурно-познавательный,1399,Балаганский историко-этнографический музей им. А.С. Башинова,Балаганский,0,1,Культура OpenTripMap.xlsx,"museums,cultural,interesting_places,history_museums,local_museums",1,54.00856,103.050095,0,Point,,Другое
"Россия, Иркутская область, село Баяндай, Советская улица",Культурно-познавательный туризм,Культурно-познавательный,1401,Баяндаевский этнографический музей,Баяндаевский,0,1,Культура OpenTripMap.xlsx,"museums,cultural,interesting_places,local_museums",1,53.056767,105.504349,0,Point,,Другое
"Россия, Иркутская область, Бодайбо, улица Розы Люксембург",Культурно-познавательный туризм,Культурно-познавательный,1577,Фонтан города бодайбо,Бодайбинский,0,1,Культура OpenTripMap.xlsx,"fountains,cultural,urban_environment,interesting_places",1,57.849873,114.204185,0,Point,,Другое
"Россия, Иркутская область, Бодайбо",Культурно-познавательный туризм,Культурно-познавательный,1576,Труд,Бодайбинский,0,1,Культура OpenTripMap.xlsx,"sport,stadiums",1,57.84544,114.19664,0,Point,,Другое
"Россия, Иркутская область, Боханский район, муниципальное образование Александровское, село Александровское, улица Дзержинского",Культурно-познавательный туризм,Культурно-познавательный,1393,Александровский централ,Боханский,0,1,Культура OpenTripMap.xlsx,"museums,cultural,interesting_places,other_museums",1,52.798908,103.833221,0,Point,,Другое
"Россия, Иркутская область, Братск, жилой район Гидростроитель, улица Горького",Культурно-познавательный туризм,Культурно-познавательный,1600,кинотеатр Современник,Братск,0,1,Культура OpenTripMap.xlsx,"cultural,cinemas,theatres_and_entertainments,interesting_places",1,56.286373,101.860184,0,Point,,Другое
"Россия, Иркутская область, Братск, жилой район Энергетик, Солнечная улица",Культурно-познавательный туризм,Культурно-познавательный,1639,Голливуд,Братск,0,1,Культура OpenTripMap.xlsx,"cultural,cinemas,theatres_and_entertainments,interesting_places",1,56.304352,101.759666,0,Point,,Другое
"Россия, Иркутская область, Братск, улица Крупской",Культурно-познавательный туризм,Культурно-познавательный,1638,"Кинотеатр ""Чарли""",Братск,0,1,Культура OpenTripMap.xlsx,"cultural,cinemas,theatres_and_entertainments,interesting_places",1,56.174751,101.60804,0,Point,,Другое
"Россия, Иркутская область, Братск, территория Ангарская деревня",Культурно-познавательный туризм,Культурно-познавательный,1668,Ангарская деревня,Братск,0,1,Культура OpenTripMap.xlsx,"cultural,museums,interesting_places,other_museums",1,56.221691,101.679443,0,Point,,Другое
"Россия, Иркутская область, Братск, жилой район Осиновка",Культурно-познавательный туризм,Культурно-познавательный,1595,ДК Транспортный строитель,Братск,0,1,Культура OpenTripMap.xlsx,"cultural,theatres_and_entertainments,interesting_places,other_theatres",1,56.277283,101.893639,0,Point,,Другое
"Россия, Иркутская область, Братск, жилой район Сухой, Еловая улица",Культурно-познавательный туризм,Культурно-познавательный,1569,Дом культуры,Братск,0,1,Культура OpenTripMap.xlsx,"cultural,urban_environment,interesting_places,installation",1,56.260708,101.961143,0,Point,,Другое
"Россия, Иркутская область, Братск, жилой район Энергетик, Приморская улица",Культурно-познавательный туризм,Культурно-познавательный,1602,Сквер замков,Братск,0,1,Культура OpenTripMap.xlsx,"cultural,urban_environment,interesting_places,sculptures",1,56.296246,101.764465,0,Point,,Другое
"Россия, Иркутская область, муниципальное образование Братск, Правобережный район",Культурно-познавательный туризм,Культурно-познавательный,1567,Братская ГЭС,Братск,0,1,Культура OpenTripMap.xlsx,"cultural,urban_environment,interesting_places,sculptures",1,56.283783,101.794487,0,Point,,Другое
"Россия, Иркутская область, Братск, жилой район Энергетик",Культурно-познавательный туризм,Культурно-познавательный,1566,Шар,Братск,0,1,Культура OpenTripMap.xlsx,"fountains,cultural,urban_environment,interesting_places",1,56.312309,101.749939,0,Point,,Другое
"Россия, Иркутская область, Братск, проспект Ленина",Культурно-познавательный туризм,Культурно-познавательный,1473,Братский театр кукол «Тирлямы»,Братск,0,1,Культура OpenTripMap.xlsx,"puppetries,cultural,theatres_and_entertainments,interesting_places",1,56.148434,101.632675,0,Point,,Другое
"Россия, Иркутская область, Братск, жилой район Гидростроитель",Культурно-познавательный туризм,Культурно-познавательный,1564,Городской стадион,Братск,0,1,Культура OpenTripMap.xlsx,"sport,stadiums",1,56.281063,101.866608,0,Point,,Другое
"Россия, Иркутская область, Братск, жилой район Осиновка",Культурно-познавательный туризм,Культурно-познавательный,1568,стадион Локомотив,Братск,0,1,Культура OpenTripMap.xlsx,"sport,stadiums",1,56.279701,101.900269,0,Point,,Другое
"Россия, Иркутская область, Братск, жилой район Падун",Культурно-познавательный туризм,Культурно-познавательный,1565,Труд,Братск,0,1,Культура OpenTripMap.xlsx,"sport,stadiums",1,56.285648,101.722801,0,Point,,Другое
"Россия, Иркутская область, Братск, улица Подбельского",Культурно-познавательный туризм,Культурно-познавательный,1674,театр кукол в Братске,Братск,0,1,Культура OpenTripMap.xlsx,"theatres_and_entertainments,cultural,interesting_places,other_theatres",1,56.150242,101.621857,0,Point,,Другое
"Россия, Иркутская область, Братск, жилой район Энергетик, Юбилейная улица",Культурно-познавательный туризм,Культурно-познавательный,1491,"Лыжная база ""Снежинка""",Братск,0,1,Культура OpenTripMap.xlsx,"winter_sports,other_winter_sports,sport",1,56.316231,101.756004,0,Point,,Другое
"Россия, Иркутская область, Братский район, Илирское муниципальное образование, село Илир, улица Кирова",Культурно-познавательный туризм,Культурно-познавательный,1633,"ДК ""КОЛОС""",Братский,0,1,Культура OpenTripMap.xlsx,"cultural,cinemas,theatres_and_entertainments,interesting_places",1,55.228508,100.683662,0,Point,,Другое
"Россия, Иркутская область, Братский район, Зябинское муниципальное образование",Культурно-познавательный туризм,Культурно-познавательный,1498,Орехов Камень,Братский,0,1,Культура OpenTripMap.xlsx,"winter_sports,skiing,sport",1,56.479031,101.968071,0,Point,,Другое
"Россия, Иркутская область, Братский район, Зябинское муниципальное образование, канатная дорога Орехов Камень",Культурно-познавательный туризм,Культурно-познавательный,1490,Matera,Братский,0,1,Культура OpenTripMap.xlsx,"winter_sports,skiing,sport",1,56.474831,101.972359,0,Point,,Другое
"Россия, Иркутская область, рабочий посёлок Жигалово",Культурно-познавательный туризм,Культурно-познавательный,1561,Стадион,Жигаловский,0,1,Культура OpenTripMap.xlsx,"sport,stadiums",1,54.8036,105.152466,0,Point,,Другое
"Россия, Иркутская область, рабочий посёлок Залари, улица Ленина",Культурно-познавательный туризм,Культурно-познавательный,1429,Заларинский районный краеведческий музей,Заларинский,0,1,Культура OpenTripMap.xlsx,"museums,cultural,interesting_places,local_museums",1,53.552094,102.499298,0,Point,,Другое
"Россия, Иркутская область, рабочий посёлок Залари",Культурно-познавательный туризм,Культурно-познавательный,1558,Стадион Урожай,Заларинский,0,1,Культура OpenTripMap.xlsx,"sport,stadiums",1,53.550797,102.496315,0,Point,,Другое
"Россия, Иркутская область, Зиминский район, село Ухтуй, улица Московский Тракт",Культурно-познавательный туризм,Культурно-познавательный,1559,Зима 1743,Зиминский,0,1,Культура OpenTripMap.xlsx,"cultural,urban_environment,interesting_places,sculptures",1,53.961578,102.06839,0,Point,,Другое
"Россия, Иркутск, Куйбышевский район",Культурно-познавательный туризм,Культурно-познавательный,1389,Интендантский сад,Иркутск,0,1,Культура OpenTripMap.xlsx,"architecture,historic_architecture,gardens_and_parks,cultural,urban_environment,interesting_places,destroyed_objects",1,52.291943,104.303886,0,Point,,Другое
"Россия, Иркутск, переулок Волконского",Культурно-познавательный туризм,Культурно-познавательный,1381,Дом Волконских,Иркутск,0,1,Культура OpenTripMap.xlsx,"biographical_museums,cultural,museums,interesting_places",1,52.287647,104.304825,0,Point,,Другое
"Россия, Иркутск, улица Дзержинского",Культурно-познавательный туризм,Культурно-познавательный,1479,Дом Трубецких,Иркутск,0,1,Культура OpenTripMap.xlsx,"biographical_museums,cultural,museums,interesting_places",1,52.288902,104.301979,0,Point,,Другое
"Россия, Иркутск, переулок Волконского",Культурно-познавательный туризм,Культурно-познавательный,1394,Историко-мемориальный музей декабристов,Иркутск,0,1,Культура OpenTripMap.xlsx,"biographical_museums,museums,cultural,interesting_places,history_museums",1,52.287617,104.30481,0,Point,,Другое
"Россия, Иркутск, улица Богдана Хмельницкого",Культурно-познавательный туризм,Культурно-познавательный,1414,Культурный центр Александра Вампилова,Иркутск,0,1,Культура OpenTripMap.xlsx,"biographical_museums,museums,cultural,interesting_places,history_museums,art_galleries",1,52.283192,104.288269,0,Point,,Другое
"Россия, Иркутск, улица Мухиной",Культурно-познавательный туризм,Культурно-познавательный,1462,Иркутский областной кинофонд,Иркутск,0,1,Культура OpenTripMap.xlsx,"cinemas,theatres_and_entertainments,cultural,interesting_places",1,52.230946,104.303238,0,Point,,Другое
"Россия, Иркутск, Пролетарская улица",Культурно-познавательный туризм,Культурно-познавательный,1371,Иркутский государственный цирк,Иркутск,0,1,Культура OpenTripMap.xlsx,"circuses,cultural,theatres_and_entertainments,interesting_places",1,52.287601,104.287224,0,Point,,Другое
"Россия, Иркутск, Партизанская улица",Культурно-познавательный туризм,Культурно-познавательный,1672,Карамель,Иркутск,0,1,Культура OpenTripMap.xlsx,"cultural,cinemas,theatres_and_entertainments,interesting_places",1,52.27903,104.302513,0,Point,,Другое
"Россия, Иркутск, Севастопольская улица",Культурно-познавательный туризм,Культурно-познавательный,1636,Россия,Иркутск,0,1,Культура OpenTripMap.xlsx,"cultural,cinemas,theatres_and_entertainments,interesting_places",1,52.351261,104.161736,0,Point,,Другое
"Россия, Иркутск, бульвар Рябикова",Культурно-познавательный туризм,Культурно-познавательный,1635,Орион,Иркутск,0,1,Культура OpenTripMap.xlsx,"cultural,cinemas,theatres_and_entertainments,interesting_places",1,52.262394,104.211678,0,Point,,Другое
"Россия, Иркутск, улица Карла Маркса",Культурно-познавательный туризм,Культурно-познавательный,1637,Художественный,Иркутск,0,1,Культура OpenTripMap.xlsx,"cultural,cinemas,theatres_and_entertainments,interesting_places",1,52.280792,104.283791,0,Point,,Другое
"Россия, Иркутск, улица Сергеева",Культурно-познавательный туризм,Культурно-познавательный,1532,Кино Jam,Иркутск,0,1,Культура OpenTripMap.xlsx,"cultural,cinemas,theatres_and_entertainments,interesting_places",1,52.265224,104.221436,0,Point,,Другое
"Россия, Иркутск, Подгорная улица",Культурно-познавательный туризм,Культурно-познавательный,1621,CCCP Museum,Иркутск,0,1,Культура OpenTripMap.xlsx,"cultural,museums,interesting_places,other_museums",1,52.278496,104.29879,0,Point,,Другое
"Россия, Иркутск, улица Безбокова",Культурно-познавательный туризм,Культурно-познавательный,1606,Дом детского творчества №3,Иркутск,0,1,Культура OpenTripMap.xlsx,"cultural,museums,interesting_places,other_museums",1,52.231907,104.315918,0,Point,,Другое
"Россия, Иркутск, улица Декабрьских Событий",Культурно-познавательный туризм,Культурно-познавательный,1614,Иркутский областной художественный музей им. В. П. Сукачёва,Иркутск,0,1,Культура OpenTripMap.xlsx,"cultural,museums,interesting_places,other_museums",1,52.279602,104.31649,0,Point,,Другое
"Россия, Иркутск, улица Карла Маркса",Культурно-познавательный туризм,Культурно-познавательный,1624,Художественный музей,Иркутск,0,1,Культура OpenTripMap.xlsx,"cultural,museums,interesting_places,other_museums",1,52.284271,104.287331,0,Point,,Другое
"Россия, Иркутск, улица Карла Маркса",Культурно-познавательный туризм,Культурно-познавательный,1586,Экспозиция военной техники,Иркутск,0,1,Культура OpenTripMap.xlsx,"cultural,museums,interesting_places,other_museums",1,52.289791,104.293831,0,Point,,Другое
"Россия, Иркутск, улица Лермонтова",Культурно-познавательный туризм,Культурно-познавательный,1619,Экспериментарий,Иркутск,0,1,Культура OpenTripMap.xlsx,"cultural,museums,interesting_places,other_museums",1,52.24509,104.271461,0,Point,,Другое
"Россия, Иркутск, улица Халтурина",Культурно-познавательный туризм,Культурно-познавательный,1622,Городской Выставочный Центр им. В.С.Рогаля,Иркутск,0,1,Культура OpenTripMap.xlsx,"cultural,museums,interesting_places,other_museums",1,52.289429,104.287323,0,Point,,Другое
"Россия, Иркутск, Свердловский округ",Культурно-познавательный туризм,Культурно-познавательный,1627,Хижина Енота,Иркутск,0,1,Культура OpenTripMap.xlsx,"cultural,museums,interesting_places,zoos",1,52.249886,104.278679,0,Point,,Другое
"Россия, Иркутск, предместье Глазково",Культурно-познавательный туризм,Культурно-познавательный,1591,Контактный детский зоопарк,Иркутск,0,1,Культура OpenTripMap.xlsx,"cultural,museums,interesting_places,zoos",1,52.26321,104.246277,0,Point,,Другое
"Россия, Иркутск, предместье Глазково",Культурно-познавательный туризм,Культурно-познавательный,1628,Нерпинарий,Иркутск,0,1,Культура OpenTripMap.xlsx,"cultural,museums,interesting_places,zoos",1,52.279594,104.249924,0,Point,,Другое
"Россия, Иркутск, Российская улица",Культурно-познавательный туризм,Культурно-познавательный,1476,Геологический музей,Иркутск,0,1,Культура OpenTripMap.xlsx,"cultural,museums,science_museums,interesting_places",1,52.286156,104.276443,0,Point,,Другое
"Россия, Иркутск, улица Ленина",Культурно-познавательный туризм,Культурно-познавательный,1367,Иркутский областной театр юного зрителя им. А. Вампилова,Иркутск,0,1,Культура OpenTripMap.xlsx,"cultural,theatres_and_entertainments,interesting_places,children_theatres",1,52.277653,104.285492,0,Point,,Другое
"Россия, Иркутск, переулок Волконского",Культурно-познавательный туризм,Культурно-познавательный,1470,Театр-студия «Театр Пилигримов»,Иркутск,0,1,Культура OpenTripMap.xlsx,"cultural,theatres_and_entertainments,interesting_places,music_venues",1,52.287277,104.304413,0,Point,,Другое
"Россия, Иркутск, улица Дзержинского",Культурно-познавательный туризм,Культурно-познавательный,1466,Иркутская областная филармония,Иркутск,0,1,Культура OpenTripMap.xlsx,"cultural,theatres_and_entertainments,interesting_places,music_venues",1,52.278023,104.285233,0,Point,,Другое
"Россия, Иркутск, улица Карла Маркса",Культурно-познавательный туризм,Культурно-познавательный,1362,Иркутский академический драматический театр им. Н. П. Охлопкова,Иркутск,0,1,Культура OpenTripMap.xlsx,"cultural,theatres_and_entertainments,interesting_places,other_theatres",1,52.277691,104.281387,0,Point,,Другое
"Россия, Иркутск, улица Ленина",Культурно-познавательный туризм,Культурно-познавательный,1594,Театр юного зрителя им. А.Вампилова,Иркутск,0,1,Культура OpenTripMap.xlsx,"cultural,theatres_and_entertainments,interesting_places,other_theatres",1,52.280048,104.282944,0,Point,,Другое
"Россия, Иркутск, Старо-Кузьмихинская улица",Культурно-познавательный туризм,Культурно-познавательный,1536,Колодец,Иркутск,0,1,Культура OpenTripMap.xlsx,"cultural,urban_environment,interesting_places,installation",1,52.245773,104.28019,0,Point,,Другое
"Россия, Иркутск, улица Сурикова",Культурно-познавательный туризм,Культурно-познавательный,1648,Сквер молодёжи,Иркутск,0,1,Культура OpenTripMap.xlsx,"cultural,urban_environment,interesting_places,installation",1,52.290211,104.276695,0,Point,,Другое
"Россия, Иркутск, Кировский район",Культурно-познавательный туризм,Культурно-познавательный,1538,Байкальская нерпа,Иркутск,0,1,Культура OpenTripMap.xlsx,"cultural,urban_environment,interesting_places,sculptures",1,52.274147,104.27729,0,Point,,Другое
"Россия, Иркутск, Кировский район",Культурно-познавательный туризм,Культурно-познавательный,1657,Солнечные часы,Иркутск,0,1,Культура OpenTripMap.xlsx,"cultural,urban_environment,interesting_places,sculptures",1,52.27792,104.283958,0,Point,,Другое
"Россия, Иркутск, улица Горького",Культурно-познавательный туризм,Культурно-познавательный,1540,Иркутская кошка,Иркутск,0,1,Культура OpenTripMap.xlsx,"cultural,urban_environment,interesting_places,sculptures",1,52.281918,104.279465,0,Point,,Другое
"Россия, Иркутск, улица Марата",Культурно-познавательный туризм,Культурно-познавательный,1654,"""Биг Бен""",Иркутск,0,1,Культура OpenTripMap.xlsx,"cultural,urban_environment,interesting_places,sculptures",1,52.280052,104.281639,0,Point,,Другое
"Россия, Иркутск, сквер имени Кирова",Культурно-познавательный туризм,Культурно-познавательный,1541,Главный фонтан города,Иркутск,0,1,Культура OpenTripMap.xlsx,"fountains,cultural,urban_environment,interesting_places",1,52.287762,104.280754,0,Point,,Другое
"Россия, Иркутск, улица Карла Маркса",Культурно-познавательный туризм,Культурно-познавательный,1545,Фонтан у Дома художников,Иркутск,0,1,Культура OpenTripMap.xlsx,"fountains,cultural,urban_environment,interesting_places",1,52.290588,104.295677,0,Point,,Другое
"Россия, Иркутск, сквер имени Сигеки Мори",Культурно-познавательный туризм,Культурно-познавательный,1487,сквер имени Сигеки Мори,Иркутск,0,1,Культура OpenTripMap.xlsx,"gardens_and_parks,cultural,urban_environment,interesting_places",1,52.282711,104.283333,0,Point,,Другое
"Россия, Иркутск, улица Седова",Культурно-познавательный туризм,Культурно-познавательный,1454,Арт-галерея «Диас»,Иркутск,0,1,Культура OpenTripMap.xlsx,"museums,cultural,interesting_places,art_galleries",1,52.273312,104.292068,0,Point,,Другое
"Россия, Иркутск, улица Сухэ-Батора",Культурно-познавательный туризм,Культурно-познавательный,1415,Галерея сибирского искусства Музея им. В. П. Сукачёва,Иркутск,0,1,Культура OpenTripMap.xlsx,"museums,cultural,interesting_places,art_galleries",1,52.283443,104.286461,0,Point,,Другое
"Россия, Иркутск, улица Фридриха Энгельса",Культурно-познавательный туризм,Культурно-познавательный,1437,Мастерская-5,Иркутск,0,1,Культура OpenTripMap.xlsx,"museums,cultural,interesting_places,art_galleries",1,52.284008,104.302849,0,Point,,Другое
"Россия, Иркутск, Ленинский округ",Культурно-познавательный туризм,Культурно-познавательный,1395,Иркутское авиационное производственное объединение,Иркутск,0,1,Культура OpenTripMap.xlsx,"museums,cultural,interesting_places,history_museums",1,52.352879,104.209473,0,Point,,Другое
"Россия, Иркутск, улица Александра Невского",Культурно-познавательный туризм,Культурно-познавательный,1447,Музей истории Иркутского педагогического университета,Иркутск,0,1,Культура OpenTripMap.xlsx,"museums,cultural,interesting_places,history_museums",1,52.275887,104.309692,0,Point,,Другое
"Россия, Иркутск, улица Карла Маркса",Культурно-познавательный туризм,Культурно-познавательный,1431,Музей истории ИГУ,Иркутск,0,1,Культура OpenTripMap.xlsx,"museums,cultural,interesting_places,history_museums",1,52.276684,104.277771,0,Point,,Другое
"Россия, Иркутск, улица Ленина",Культурно-познавательный туризм,Культурно-познавательный,1430,Музей истории Иркутского лингвистического университета,Иркутск,0,1,Культура OpenTripMap.xlsx,"museums,cultural,interesting_places,history_museums",1,52.288673,104.278236,0,Point,,Другое
"Россия, Иркутск, улица Рабочего Штаба",Культурно-познавательный туризм,Культурно-познавательный,1449,Музей истории профтехобразования Иркутской области при ГТУ-1,Иркутск,0,1,Культура OpenTripMap.xlsx,"museums,cultural,interesting_places,history_museums",1,52.301109,104.299812,0,Point,,Другое
"Россия, Иркутск, улица Чернышевского",Культурно-познавательный туризм,Культурно-познавательный,1422,Музей истории ИрГУПС,Иркутск,0,1,Культура OpenTripMap.xlsx,"museums,cultural,interesting_places,history_museums",1,52.27071,104.261192,0,Point,,Другое
"Россия, Иркутск, улица Ширямова",Культурно-познавательный туризм,Культурно-познавательный,1441,Иркутск,Иркутск,0,1,Культура OpenTripMap.xlsx,"museums,cultural,interesting_places,history_museums",1,52.272743,104.355865,0,Point,,Другое
"Россия, Иркутск, улица Карла Маркса",Культурно-познавательный туризм,Культурно-познавательный,1412,Отдел истории Иркутского областного краеведческого музея,Иркутск,0,1,Культура OpenTripMap.xlsx,"museums,cultural,interesting_places,history_museums,local_museums",1,52.275749,104.27816,0,Point,,Другое
"Россия, Иркутск, улица Карла Маркса",Культурно-познавательный туризм,Культурно-познавательный,1404,Отдел природы Иркутского областного краеведческого музея,Иркутск,0,1,Культура OpenTripMap.xlsx,"museums,cultural,interesting_places,local_museums",1,52.282051,104.283691,0,Point,,Другое
"Россия, Иркутск, улица Карла Маркса",Культурно-познавательный туризм,Культурно-познавательный,1410,Музейная студия,Иркутск,0,1,Культура OpenTripMap.xlsx,"museums,cultural,interesting_places,local_museums,art_galleries",1,52.281788,104.284203,0,Point,,Другое
"Россия, Иркутск, Советская улица",Культурно-познавательный туризм,Культурно-познавательный,1426,Музей боевой славы ИВАИИ,Иркутск,0,1,Культура OpenTripMap.xlsx,"museums,cultural,interesting_places,military_museums",1,52.27766,104.338226,0,Point,,Другое
"Россия, Иркутск, Красноказачья улица",Культурно-познавательный туризм,Культурно-познавательный,1443,Музей института повышения квалификации им. Антипина,Иркутск,0,1,Культура OpenTripMap.xlsx,"museums,cultural,interesting_places,other_museums",1,52.281837,104.315163,0,Point,,Другое
"Россия, Иркутск, улица Академика Образцова",Культурно-познавательный туризм,Культурно-познавательный,1436,Иркутск-Сортировочный,Иркутск,0,1,Культура OpenTripMap.xlsx,"museums,cultural,interesting_places,other_museums",1,52.339672,104.206924,0,Point,,Другое
"Россия, Иркутск, улица Лермонтова",Культурно-познавательный туризм,Культурно-познавательный,1391,Экспериментарий,Иркутск,0,1,Культура OpenTripMap.xlsx,"museums,cultural,interesting_places,other_museums",1,52.248974,104.27211,0,Point,,Другое
"Россия, Иркутск, улица Тимирязева",Культурно-познавательный туризм,Культурно-познавательный,1442,Иркутский музей пожарно-технического центра,Иркутск,0,1,Культура OpenTripMap.xlsx,"museums,cultural,interesting_places,other_museums",1,52.284126,104.297928,0,Point,,Другое
"Россия, Иркутск, предместье Глазково",Культурно-познавательный туризм,Культурно-познавательный,1360,Иркутск-пассажирский,Иркутск,0,1,Культура OpenTripMap.xlsx,"railway_stations,industrial_facilities,museums,cultural,interesting_places,history_museums",1,52.283134,104.259697,0,Point,,Другое
"Россия, Иркутск, Кооперативный переулок",Культурно-познавательный туризм,Культурно-познавательный,1543,"Дворец спорта ""Юность""",Иркутск,0,1,Культура OpenTripMap.xlsx,"sport,pools",1,52.288193,104.284103,0,Point,,Другое
"Россия, Иркутск, улица Авиастроителей",Культурно-познавательный туризм,Культурно-познавательный,1535,"""Кристалл""",Иркутск,0,1,Культура OpenTripMap.xlsx,"sport,pools",1,52.35104,104.226517,0,Point,,Другое
"Россия, Иркутск, Байкальская улица",Культурно-познавательный туризм,Культурно-познавательный,1607,Байкал-Арена,Иркутск,0,1,Культура OpenTripMap.xlsx,"sport,stadiums",1,52.255272,104.36322,0,Point,,Другое
"Россия, Иркутск, Байкальская улица",Культурно-познавательный туризм,Культурно-познавательный,1552,бассейн Газпром,Иркутск,0,1,Культура OpenTripMap.xlsx,"sport,stadiums",1,52.256611,104.350479,0,Point,,Другое
"Россия, Иркутск, Кировский район",Культурно-познавательный туризм,Культурно-познавательный,1383,"Стадион ""Труд""",Иркутск,0,1,Культура OpenTripMap.xlsx,"sport,stadiums",1,52.276318,104.282112,0,Point,,Другое
"Россия, Иркутск, Кировский район",Культурно-познавательный туризм,Культурно-познавательный,1666,Стадион на Мопра,Иркутск,0,1,Культура OpenTripMap.xlsx,"sport,stadiums",1,52.291302,104.293716,0,Point,,Другое
"Россия, Иркутск, Октябрьский округ",Культурно-познавательный туризм,Культурно-познавательный,1550,Дерт-Парк велосипед,Иркутск,0,1,Культура OpenTripMap.xlsx,"sport,stadiums",1,52.24242,104.373993,0,Point,,Другое
"Россия, Иркутск, Октябрьский округ",Культурно-познавательный туризм,Культурно-познавательный,1529,Кроссовая трасса,Иркутск,0,1,Культура OpenTripMap.xlsx,"sport,stadiums",1,52.241714,104.372116,0,Point,,Другое
"Россия, Иркутск, Октябрьский округ",Культурно-познавательный туризм,Культурно-познавательный,1553,Стадион Авиатор,Иркутск,0,1,Культура OpenTripMap.xlsx,"sport,stadiums",1,52.275085,104.352341,0,Point,,Другое
"Россия, Иркутск, Октябрьский округ",Культурно-познавательный туризм,Культурно-познавательный,1549,Эндуро-Трасса,Иркутск,0,1,Культура OpenTripMap.xlsx,"sport,stadiums",1,52.241474,104.36721,0,Point,,Другое
"Россия, Иркутск, микрорайон Ново-Ленино",Культурно-познавательный туризм,Культурно-познавательный,1533,Локомотив,Иркутск,0,1,Культура OpenTripMap.xlsx,"sport,stadiums",1,52.334145,104.210678,0,Point,,Другое
"Россия, Иркутск, микрорайон Первомайский",Культурно-познавательный туризм,Культурно-познавательный,1528,поле,Иркутск,0,1,Культура OpenTripMap.xlsx,"sport,stadiums",1,52.25264,104.238052,0,Point,,Другое
"Россия, Иркутск, предместье Глазково",Культурно-познавательный туризм,Культурно-познавательный,1489,Байкал,Иркутск,0,1,Культура OpenTripMap.xlsx,"sport,stadiums",1,52.288727,104.247879,0,Point,,Другое
"Россия, Иркутск, предместье Глазково",Культурно-познавательный туризм,Культурно-познавательный,1488,Локомотив,Иркутск,0,1,Культура OpenTripMap.xlsx,"sport,stadiums",1,52.289116,104.250702,0,Point,,Другое
"Россия, Иркутск, предместье Рабочее",Культурно-познавательный туризм,Культурно-познавательный,1547,Стадион ДИНАМО,Иркутск,0,1,Культура OpenTripMap.xlsx,"sport,stadiums",1,52.290409,104.31974,0,Point,,Другое
"Россия, Иркутск, улица Лермонтова",Культурно-познавательный туризм,Культурно-познавательный,1537,Ледовый дворец,Иркутск,0,1,Культура OpenTripMap.xlsx,"sport,stadiums",1,52.25251,104.266434,0,Point,,Другое
"Россия, Иркутск, улица Сухэ-Батора",Культурно-познавательный туризм,Культурно-познавательный,1456,Органный зал Иркутской областной филармонии,Иркутск,0,1,Культура OpenTripMap.xlsx,"theatres_and_entertainments,cultural,interesting_places,music_venues",1,52.290409,104.282516,0,Point,,Другое
"Россия, Иркутск, предместье Глазково",Культурно-познавательный туризм,Культурно-познавательный,1486,парк Парижской Коммуны,Иркутск,0,1,Культура OpenTripMap.xlsx,"urban_environment,gardens_and_parks,cultural,interesting_places",1,52.287739,104.250343,0,Point,,Другое
"Россия, Иркутск, улица Карла Маркса",Культурно-познавательный туризм,Культурно-познавательный,1641,Интернационал,Иркутск,0,1,Культура OpenTripMap.xlsx,"wall_painting,cultural,urban_environment,interesting_places",1,52.285854,104.289322,0,Point,,Другое
"Россия, Иркутский район, Большереченское муниципальное образование, посёлок Тальцы",Культурно-познавательный туризм,Культурно-познавательный,1365,Иркутский архитектурно-этнографический музей «Тальцы»,Иркутский,0,1,Культура OpenTripMap.xlsx,"cultural,museums,interesting_places,history_museums,local_museums,art_galleries",1,51.995285,104.666061,0,Point,,Другое
"Россия, Иркутский район, Большереченское муниципальное образование",Культурно-познавательный туризм,Культурно-познавательный,1578,Лукоморье,Иркутский,0,1,Культура OpenTripMap.xlsx,"cultural,museums,interesting_places,other_museums",1,51.984322,104.692757,0,Point,,Другое
"Россия, Иркутский район, Листвянское муниципальное образование, рабочий посёлок Листвянка, улица Куликова",Культурно-познавательный туризм,Культурно-познавательный,1585,выставка авторетротехники,Иркутский,0,1,Культура OpenTripMap.xlsx,"cultural,museums,interesting_places,other_museums",1,51.859577,104.86557,0,Point,,Другое
"Россия, Иркутский район, Листвянское муниципальное образование, рабочий посёлок Листвянка, улица Чапаева",Культурно-познавательный туризм,Культурно-познавательный,1579,Музей Кумир,Иркутский,0,1,Культура OpenTripMap.xlsx,"cultural,museums,interesting_places,other_museums",1,51.85638,104.875191,0,Point,,Другое
"Россия, Иркутский район, Уриковское муниципальное образование",Культурно-познавательный туризм,Культурно-познавательный,1555,Мусора,Иркутский,0,1,Культура OpenTripMap.xlsx,"cultural,museums,interesting_places,other_museums",1,52.382359,104.303001,0,Point,,Другое
"Россия, Иркутский район, Листвянское муниципальное образование, рабочий посёлок Листвянка, улица Горького",Культурно-познавательный туризм,Культурно-познавательный,1590,Нерпинарий,Иркутский,0,1,Культура OpenTripMap.xlsx,"cultural,museums,interesting_places,zoos",1,51.845379,104.875488,0,Point,,Другое
"Россия, Иркутский район, Листвянское муниципальное образование, рабочий посёлок Листвянка, улица Островского",Культурно-познавательный туризм,Культурно-познавательный,1526,Шансон-приют,Иркутский,0,1,Культура OpenTripMap.xlsx,"cultural,theatres_and_entertainments,interesting_places,other_theatres",1,51.863354,104.868904,0,Point,,Другое
"Россия, Иркутский район, Листвянское муниципальное образование, рабочий посёлок Листвянка, улица Горького",Культурно-познавательный туризм,Культурно-познавательный,1647,Рыбак,Иркутский,0,1,Культура OpenTripMap.xlsx,"cultural,urban_environment,interesting_places,installation",1,51.855412,104.860481,0,Point,,Другое
"Россия, Иркутский район, Листвянское муниципальное образование",Культурно-познавательный туризм,Культурно-познавательный,1388,Musée du Baïkal,Иркутский,0,1,Культура OpenTripMap.xlsx,"museums,cultural,interesting_places,other_museums",1,51.910587,104.881607,0,Point,,Другое
"Россия, Иркутский район, Ушаковское муниципальное образование, село Пивовариха, Степная улица",Культурно-познавательный туризм,Культурно-познавательный,1556,37,Иркутский,0,1,Культура OpenTripMap.xlsx,"sport,stadiums",1,52.27121,104.439491,0,Point,,Другое
"Россия, Иркутский район, Хомутовское муниципальное образование",Культурно-познавательный туризм,Культурно-познавательный,1500,"Рекорд (стадион, Иркутск)",Иркутский,0,1,Культура OpenTripMap.xlsx,"sport,stadiums",1,52.437222,104.334999,0,Point,,Другое
"Россия, Иркутский район, посёлок Молодёжный",Культурно-познавательный туризм,Культурно-познавательный,1551,4/1,Иркутский,0,1,Культура OpenTripMap.xlsx,"sport,stadiums",1,52.248852,104.408234,0,Point,,Другое
"Россия, Иркутский район, Листвянское муниципальное образование, рабочий посёлок Листвянка, территория Горнолыжный комплекс Истлэнд",Культурно-познавательный туризм,Культурно-познавательный,1494,Nikola,Иркутский,0,1,Культура OpenTripMap.xlsx,"winter_sports,skiing,sport",1,51.876354,104.842735,0,Point,,Другое
"Россия, Иркутская область, Казачинско-Ленский район, Магистральнинское муниципальное образование, рабочий посёлок Магистральный",Культурно-познавательный туризм,Культурно-познавательный,1406,Казачинско-Ленский районный краеведческий музей,Казачинско-Ленский,0,1,Культура OpenTripMap.xlsx,"museums,cultural,interesting_places,local_museums",1,56.169781,107.438789,0,Point,,Другое
"Россия, Иркутская область, Катангский район, село Ербогачён, улица Шишкова",Культурно-познавательный туризм,Культурно-познавательный,1398,Литературно-краеведческий музей,Катангский,0,1,Культура OpenTripMap.xlsx,"museums,cultural,interesting_places,local_museums",1,61.275417,108.004387,0,Point,,Другое
"Россия, Иркутская область, рабочий посёлок Качуг",Культурно-познавательный туризм,Культурно-познавательный,1609,Дом культуры,Качугский,0,1,Культура OpenTripMap.xlsx,"cultural,museums,interesting_places,other_museums",1,53.962891,105.880272,0,Point,,Другое
"Россия, Иркутская область, рабочий посёлок Качуг",Культурно-познавательный туризм,Культурно-познавательный,1669,Орёл,Качугский,0,1,Культура OpenTripMap.xlsx,"cultural,urban_environment,interesting_places,sculptures",1,53.980877,105.860924,0,Point,,Другое
"Россия, Иркутская область, Качугский район, Ангинское муниципальное образование, село Анга, Совхозная улица",Культурно-познавательный туризм,Культурно-познавательный,1408,Культурно-просветительский центр имени святителя Иннокентия,Качугский,0,1,Культура OpenTripMap.xlsx,"museums,cultural,interesting_places,local_museums",1,53.983433,106.186104,0,Point,,Другое
"Россия, Иркутская область, Киренск, Советская улица",Культурно-познавательный туризм,Культурно-познавательный,1403,МКУК «ИКМ»,Киренский,0,1,Культура OpenTripMap.xlsx,"children_museums,museums,cultural,interesting_places",1,57.775864,108.115128,0,Point,,Другое
"Россия, Иркутская область, Киренск, микрорайон Мельничный",Культурно-познавательный туризм,Культурно-познавательный,1575,Стадион,Киренский,0,1,Культура OpenTripMap.xlsx,"sport,stadiums",1,57.789635,108.107796,0,Point,,Другое
"Россия, Иркутская область, Куйтунский район, Ленинское муниципальное образование, посёлок Игнино",Культурно-познавательный туризм,Культурно-познавательный,1421,Игнинский художественный музей,Куйтунский,0,1,Культура OpenTripMap.xlsx,"museums,cultural,interesting_places,art_galleries",1,54.088257,101.753937,0,Point,,Другое
"Россия, Иркутская область, Железногорск-Илимский",Культурно-познавательный туризм,Культурно-познавательный,1611,Дельфин,Нижнеилимский,0,1,Культура OpenTripMap.xlsx,"sport,pools",1,56.583584,104.118866,0,Point,,Другое
"Россия, Иркутская область, Железногорск-Илимский",Культурно-познавательный туризм,Культурно-познавательный,1571,Стадион,Нижнеилимский,0,1,Культура OpenTripMap.xlsx,"sport,stadiums",1,56.571735,104.125473,0,Point,,Другое
"Россия, Иркутская область, Железногорск-Илимский",Культурно-познавательный туризм,Культурно-познавательный,1496,Гора Восточная,Нижнеилимский,0,1,Культура OpenTripMap.xlsx,"winter_sports,skiing,sport",1,56.594479,104.128609,0,Point,,Другое
"Россия, Иркутская область, Нижнеудинский район, Шумское муниципальное образование, рабочий посёлок Шумский, Советская улица",Культурно-познавательный туризм,Культурно-познавательный,1603,Заброшенный Дом культуры,Нижнеудинский,0,1,Культура OpenTripMap.xlsx,"cultural,cinemas,theatres_and_entertainments,interesting_places",1,54.834435,99.130486,0,Point,,Другое
"Россия, Иркутская область, Нижнеудинск, улица Ленина",Культурно-познавательный туризм,Культурно-познавательный,1446,Нижнеудинский краеведческий музей,Нижнеудинский,0,1,Культура OpenTripMap.xlsx,"museums,cultural,interesting_places,local_museums",1,54.905411,99.031204,0,Point,,Другое
"Россия, Иркутская область, Ольхонский район, Шара-Тоготское муниципальное образование, село Сахюрта, Центральная улица",Культурно-познавательный туризм,Культурно-познавательный,1562,Музей рыболовного промысла,Ольхонский,0,1,Культура OpenTripMap.xlsx,"cultural,museums,interesting_places,other_museums",1,53.016636,106.885056,0,Point,,Другое
"Россия, Иркутская область, Ольхонский район, посёлок Хужир, Кирпичная улица",Культурно-познавательный туризм,Культурно-познавательный,1563,"Картинная галлерея в ""Мастерской Ощепковых""",Ольхонский,0,1,Культура OpenTripMap.xlsx,"cultural,urban_environment,interesting_places,installation",1,53.198112,107.338417,0,Point,,Другое
"Россия, Иркутская область, Саянск, Олимпийский микрорайон",Культурно-познавательный туризм,Культурно-познавательный,1650,Городской фонтан,Саянск,0,1,Культура OpenTripMap.xlsx,"fountains,cultural,urban_environment,interesting_places",1,54.112034,102.168861,0,Point,,Другое
"Россия, Иркутская область, Саянск, микрорайон Строителей",Культурно-познавательный туризм,Культурно-познавательный,1397,Музей истории,Саянск,0,1,Культура OpenTripMap.xlsx,"museums,cultural,children_museums,interesting_places,history_museums,local_museums",1,54.114281,102.174217,0,Point,,Другое
"Россия, Иркутская область, Саянск, микрорайон Юбилейный",Культурно-познавательный туризм,Культурно-познавательный,1444,Саянская картинная галерея,Саянск,0,1,Культура OpenTripMap.xlsx,"museums,cultural,interesting_places,art_galleries",1,54.102554,102.157089,0,Point,,Другое
"Россия, Иркутская область, Слюдянский район, Байкальское муниципальное образование, Байкальск, микрорайон Южный",Культурно-познавательный туризм,Культурно-познавательный,1630,Юбилейный,Слюдянский,0,1,Культура OpenTripMap.xlsx,"cultural,cinemas,theatres_and_entertainments,interesting_places",1,51.508312,104.141174,0,Point,,Другое
"Россия, Иркутская область, Слюдянка, Железнодорожная улица",Культурно-познавательный туризм,Культурно-познавательный,1582,Музей истории ВСЖД,Слюдянский,0,1,Культура OpenTripMap.xlsx,"cultural,museums,interesting_places,other_museums",1,51.654751,103.726517,0,Point,,Другое
"Россия, Иркутская область, Слюдянка, улица Бабушкина",Культурно-познавательный туризм,Культурно-познавательный,1581,Музей древностей Байкала,Слюдянский,0,1,Культура OpenTripMap.xlsx,"cultural,museums,interesting_places,other_museums",1,51.6534,103.726952,0,Point,,Другое
"Россия, Иркутская область, Слюдянский район, Портбайкальское муниципальное образование",Культурно-познавательный туризм,Культурно-познавательный,1583,Выставка-экспозиция КБЖД,Слюдянский,0,1,Культура OpenTripMap.xlsx,"cultural,museums,interesting_places,other_museums",1,51.870178,104.809067,0,Point,,Другое
"Россия, Иркутская область, Слюдянка, улица Ленина",Культурно-познавательный туризм,Культурно-познавательный,1593,Дом культуры «Перевал»,Слюдянский,0,1,Культура OpenTripMap.xlsx,"cultural,theatres_and_entertainments,interesting_places,other_theatres",1,51.671722,103.685242,0,Point,,Другое
"Россия, Иркутская область, Слюдянка, улица Парижской Коммуны",Культурно-познавательный туризм,Культурно-познавательный,1592,Дворец культуры железнодорожников,Слюдянский,0,1,Культура OpenTripMap.xlsx,"cultural,theatres_and_entertainments,interesting_places,other_theatres",1,51.656429,103.719742,0,Point,,Другое
"Россия, Иркутская область, Слюдянский район, Култукское муниципальное образование",Культурно-познавательный туризм,Культурно-познавательный,1673,галерея № 14 (Недостроенная),Слюдянский,0,1,Культура OpenTripMap.xlsx,"cultural,urban_environment,interesting_places,squares",1,51.729897,103.825569,0,Point,,Другое
"Россия, Иркутская область, Слюдянка",Культурно-познавательный туризм,Культурно-познавательный,1506,Локомотив,Слюдянский,0,1,Культура OpenTripMap.xlsx,"sport,stadiums",1,51.652317,103.719635,0,Point,,Другое
"Россия, Иркутская область, Слюдянский район, Байкальское муниципальное образование, Байкальск, микрорайон Красный Ключ, Горнолыжный курорт Гора Соболиная",Культурно-познавательный туризм,Культурно-познавательный,1492,Baykal’sk,Слюдянский,0,1,Культура OpenTripMap.xlsx,"winter_sports,skiing,sport",1,51.500656,104.117355,0,Point,,Другое
"Россия, Иркутская область, Тайшетский район, Бирюсинское городское поселение, Бирюсинск, Первомайская улица",Культурно-познавательный туризм,Культурно-познавательный,1631,"ЦКиД ""НАДЕЖДА""",Тайшетский,0,1,Культура OpenTripMap.xlsx,"cultural,cinemas,theatres_and_entertainments,interesting_places",1,55.96093,97.824425,0,Point,,Другое
"Россия, Иркутская область, Тайшет",Культурно-познавательный туризм,Культурно-познавательный,1649,Вокзальный,Тайшетский,0,1,Культура OpenTripMap.xlsx,"fountains,cultural,urban_environment,interesting_places",1,55.940182,98.002495,0,Point,,Другое
"Россия, Иркутская область, Тайшетский район, Бирюсинское городское поселение, Бирюсинск",Культурно-познавательный туризм,Культурно-познавательный,1502,Бассейн,Тайшетский,0,1,Культура OpenTripMap.xlsx,"sport,pools",1,55.962639,97.816574,0,Point,,Другое
"Россия, Иркутская область, Тайшет",Культурно-познавательный туризм,Культурно-познавательный,1503,Стадион Локомотив,Тайшетский,0,1,Культура OpenTripMap.xlsx,"sport,stadiums",1,55.928661,98.010719,0,Point,,Другое
"Россия, Иркутская область, Тулун, микрорайон Угольщиков",Культурно-познавательный туризм,Культурно-познавательный,1632,Фестиваль,Тулун,0,1,Культура OpenTripMap.xlsx,"cultural,cinemas,theatres_and_entertainments,interesting_places",1,54.531696,100.607254,0,Point,,Другое
"Россия, Иркутская область, Тулун",Культурно-познавательный туризм,Культурно-познавательный,1642,Тулун,Тулун,0,1,Культура OpenTripMap.xlsx,"cultural,urban_environment,interesting_places,installation",1,54.575459,100.528069,0,Point,,Другое
"Россия, Иркутская область, Тулун, улица Ленина",Культурно-познавательный туризм,Культурно-познавательный,1457,Виртуальный концертный зал,Тулун,0,1,Культура OpenTripMap.xlsx,"theatres_and_entertainments,cultural,interesting_places,music_venues",1,54.557808,100.578766,0,Point,,Другое
"Россия, Иркутская область, Тулунский район, Писаревское муниципальное образование, посёлок Центральные Мастерские",Культурно-познавательный туризм,Культурно-познавательный,1504,Урожай,Тулунский,0,1,Культура OpenTripMap.xlsx,"sport,stadiums",1,54.596912,100.523384,0,Point,,Другое
"Россия, Иркутская область, Усольский район, Железнодорожное муниципальное образование",Культурно-познавательный туризм,Культурно-познавательный,1652,Усольский район,Усольский,0,1,Культура OpenTripMap.xlsx,"cultural,urban_environment,interesting_places,sculptures",1,52.559937,103.854065,0,Point,,Другое
"Россия, Иркутская область, Усольский район, Белореченское городское муниципальное образование, село Мальта",Культурно-познавательный туризм,Культурно-познавательный,1519,Школьный стадион,Усольский,0,1,Культура OpenTripMap.xlsx,"sport,stadiums",1,52.833401,103.51902,0,Point,,Другое
"Россия, Иркутская область, Усть-Илимск, проспект Мира",Культурно-познавательный туризм,Культурно-познавательный,1640,Супермакс,Усть-Илимский,0,1,Культура OpenTripMap.xlsx,"cultural,cinemas,theatres_and_entertainments,interesting_places",1,57.954266,102.739006,0,Point,,Другое
"Россия, Иркутская область, Усть-Илимск, проспект Мира",Культурно-познавательный туризм,Культурно-познавательный,1469,Усть-Илимский театр драмы и комедии,Усть-Илимский,0,1,Культура OpenTripMap.xlsx,"cultural,theatres_and_entertainments,interesting_places,other_theatres",1,57.94669,102.734978,0,Point,,Другое
"Россия, Иркутская область, Усть-Илимск, улица Ленина",Культурно-познавательный туризм,Культурно-познавательный,1610,Олимпиец,Усть-Илимский,0,1,Культура OpenTripMap.xlsx,"sport,pools",1,57.987938,102.673424,0,Point,,Другое
"Россия, Иркутская область, Усть-Илимск, квартал Старый Город",Культурно-познавательный туризм,Культурно-познавательный,1570,стадион Юбилейный,Усть-Илимский,0,1,Культура OpenTripMap.xlsx,"sport,stadiums",1,57.989887,102.669067,0,Point,,Другое
"Россия, Иркутская область, Усть-Кут, улица Калинина",Культурно-познавательный туризм,Культурно-познавательный,1573,фонтан,Усть-Кутский,0,1,Культура OpenTripMap.xlsx,"fountains,cultural,urban_environment,interesting_places",1,56.780018,105.746536,0,Point,,Другое
"Россия, Иркутская область, Усть-Кут, Школьный переулок",Культурно-познавательный туризм,Культурно-познавательный,1450,Усть-Кутский музей истории школы № 9,Усть-Кутский,0,1,Культура OpenTripMap.xlsx,"museums,cultural,interesting_places,history_museums",1,56.781425,105.755508,0,Point,,Другое
"Россия, Иркутская область, Усть-Кут, улица Речников",Культурно-познавательный туризм,Культурно-познавательный,1572,Нептун,Усть-Кутский,0,1,Культура OpenTripMap.xlsx,"sport,pools",1,56.794319,105.776207,0,Point,,Другое
"Россия, Иркутская область, Усть-Кутский район, Верхнемарковское муниципальное образование, вахтовый посёлок Яракта",Культурно-познавательный туризм,Культурно-познавательный,1574,Спортзал,Усть-Кутский,0,1,Культура OpenTripMap.xlsx,"sport,stadiums",1,57.988136,106.791916,0,Point,,Другое
"Россия, Иркутская область, Черемхово, улица Дударского",Культурно-познавательный туризм,Культурно-познавательный,1629,ДК им Горького,Черемховский,0,1,Культура OpenTripMap.xlsx,"cultural,theatres_and_entertainments,interesting_places,other_theatres",1,53.116802,103.153603,0,Point,,Другое
"Россия, Иркутская область, Черемхово, микрорайон Ленинский",Культурно-познавательный туризм,Культурно-познавательный,1517,Бассейн 70 лет Победы,Черемховский,0,1,Культура OpenTripMap.xlsx,"sport,pools",1,53.137493,103.086327,0,Point,,Другое
"Россия, Иркутская область, Черемхово, микрорайон Новороссийский",Культурно-познавательный туризм,Культурно-познавательный,1516,Шахтер,Черемховский,0,1,Культура OpenTripMap.xlsx,"sport,stadiums",1,53.138897,103.07634,0,Point,,Другое
"Россия, Иркутская область, рабочий посёлок Чунский, улица Комарова",Культурно-познавательный туризм,Культурно-познавательный,1580,Краеведческий музей,Чунский,0,1,Культура OpenTripMap.xlsx,"cultural,museums,interesting_places,other_museums",1,56.088928,99.661308,0,Point,,Другое
"Россия, Иркутская область, рабочий посёлок Чунский, улица Ленина",Культурно-познавательный туризм,Культурно-познавательный,1483,ЛиК,Чунский,0,1,Культура OpenTripMap.xlsx,"cultural,theatres_and_entertainments,interesting_places,other_theatres",1,56.0853,99.652718,0,Point,,Другое
"Россия, Иркутская область, рабочий посёлок Чунский",Культурно-познавательный туризм,Культурно-познавательный,1505,Юность,Чунский,0,1,Культура OpenTripMap.xlsx,"sport,stadiums",1,56.087776,99.659866,0,Point,,Другое
"Россия, Иркутская область, рабочий посёлок Чунский, улица Ленина",Культурно-познавательный туризм,Культурно-познавательный,1459,МБУК «Центр театрального творчества «ЛиК»,Чунский,0,1,Культура OpenTripMap.xlsx,"theatres_and_entertainments,cultural,interesting_places,other_theatres",1,56.085209,99.652855,0,Point,,Другое
"Россия, Иркутская область, Шелехов",Культурно-познавательный туризм,Культурно-познавательный,1396,Выставочный зал,Шелеховский,0,1,Культура OpenTripMap.xlsx,"museums,cultural,interesting_places,art_galleries",1,52.20993,104.092148,0,Point,,Другое
"Россия, Иркутская область, Шелехов, Центральный проспект",Культурно-познавательный туризм,Культурно-познавательный,1605,Лазурный,Шелеховский,0,1,Культура OpenTripMap.xlsx,"sport,pools",1,52.209736,104.077438,0,Point,,Другое
"Россия, Иркутская область, Шелехов",Культурно-познавательный туризм,Культурно-познавательный,1373,"Стадион ""Строитель""",Шелеховский,0,1,Культура OpenTripMap.xlsx,"sport,stadiums",1,52.215923,104.093437,0,Point,,Другое
"Россия, Иркутская область, Шелехов, Городской парк",Культурно-познавательный туризм,Культурно-познавательный,1530,"Стадион ""Металлург""",Шелеховский,0,1,Культура OpenTripMap.xlsx,"sport,stadiums",1,52.212177,104.07769,0,Point,,Другое
"Россия, Иркутская область, Шелеховский район, Олхинское муниципальное образование, деревня Олха, территория Горнолыжный Комплекс Олха",Культурно-познавательный туризм,Культурно-познавательный,1495,Olkha,Шелеховский,0,1,Культура OpenTripMap.xlsx,"winter_sports,skiing,sport",1,52.150688,104.095833,0,Point,,Другое
"Россия, Иркутская область, Шелеховский район, Подкаменское муниципальное образование",Культурно-познавательный туризм,Культурно-познавательный,1493,Rassokha,Шелеховский,0,1,Культура OpenTripMap.xlsx,"winter_sports,skiing,sport",1,51.972183,104.123886,0,Point,,Другое
"Россия, Иркутская область, Эхирит-Булагатский район, посёлок Усть-Ордынский, улица Ленина",Культурно-познавательный туризм,Культурно-познавательный,1402,Национальный Усть-Ордынского Бурятского округа,Эхирит-Булагатский,0,1,Культура OpenTripMap.xlsx,"national_museums,museums,cultural,automobile_museums,interesting_places,museums_of_science_and_technology",1,52.803593,104.755951,0,Point,,Другое
"Россия, Иркутская область, Усолье-Сибирское, проспект Красных Партизан",Культурно-познавательный туризм,Культурно-познавательный,1509,Ровесник,не обнаружено,0,1,Культура OpenTripMap.xlsx,"cultural,cinemas,theatres_and_entertainments,interesting_places",1,52.730831,103.656197,0,Point,,Другое
"Россия, Иркутская область, Усолье-Сибирское, микрорайон Центральный",Культурно-познавательный туризм,Культурно-познавательный,1520,Белореченское,не обнаружено,0,1,Культура OpenTripMap.xlsx,"cultural,urban_environment,interesting_places,sculptures",1,52.794464,103.576202,0,Point,,Другое
"Россия, Иркутская область, Усолье-Сибирское, Комсомольский проспект",Культурно-познавательный туризм,Культурно-познавательный,1604,Нептун,не обнаружено,0,1,Культура OpenTripMap.xlsx,"sport,pools",1,52.736656,103.662025,0,Point,,Другое
"Россия, Иркутская область, Усолье-Сибирское, Фестивальный проезд",Культурно-познавательный туризм,Культурно-познавательный,1524,Чайка,не обнаружено,0,1,Культура OpenTripMap.xlsx,"sport,pools",1,52.758335,103.642769,0,Point,,Другое
"Россия, Иркутская область, Усолье-Сибирское, микрорайон Центральный",Культурно-познавательный туризм,Культурно-познавательный,1521,Машиностроитель,не обнаружено,0,1,Культура OpenTripMap.xlsx,"sport,stadiums",1,52.745995,103.659386,0,Point,,Другое
"Россия, Иркутская область, Усолье-Сибирское, микрорайон Центральный",Культурно-познавательный туризм,Культурно-познавательный,1522,Химик,не обнаружено,0,1,Культура OpenTripMap.xlsx,"sport,stadiums",1,52.738071,103.662491,0,Point,,Другое
"Россия, Иркутская область, Ангарск",Культурно-познавательный туризм,Культурно-познавательный,1715,Воинам-интернационалистам,Ангарский,0,1,Монументы OpenTripMap.xlsx,"historic,monuments_and_memorials,interesting_places,monuments",1,52.537361,103.872238,0,Point,,Другое
"Россия, Иркутская область, Ангарск",Культурно-познавательный туризм,Культурно-познавательный,1857,СУ-27,Ангарский,0,1,Монументы OpenTripMap.xlsx,"historic,monuments_and_memorials,interesting_places,monuments",1,52.512733,103.861717,0,Point,,Другое
"Россия, Иркутская область, Ангарск",Культурно-познавательный туризм,Культурно-познавательный,1714,святым Петру и Февронии Муромским,Ангарский,0,1,Монументы OpenTripMap.xlsx,"historic,monuments_and_memorials,interesting_places,monuments",1,52.526997,103.870468,0,Point,,Другое
"Россия, Иркутская область, Ангарск, Московский тракт",Культурно-познавательный туризм,Культурно-познавательный,1685,Памятник политкаторжанам в Ангарске,Ангарский,0,1,Монументы OpenTripMap.xlsx,"historic,monuments_and_memorials,interesting_places,monuments",1,52.542274,103.910248,0,Point,,Другое
"Россия, Иркутская область, Ангарск, Набережная улица",Культурно-познавательный туризм,Культурно-познавательный,1718,Памятник декабристам,Ангарский,0,1,Монументы OpenTripMap.xlsx,"historic,monuments_and_memorials,interesting_places,monuments",1,52.552208,103.875305,0,Point,,Другое
"Россия, Иркутская область, Ангарск, парк Победы",Культурно-познавательный туризм,Культурно-познавательный,1858,павших,Ангарский,0,1,Монументы OpenTripMap.xlsx,"historic,monuments_and_memorials,interesting_places,monuments",1,52.512741,103.863808,0,Point,,Другое
"Россия, Иркутская область, Ангарск, сквер Почётных Граждан",Культурно-познавательный туризм,Культурно-познавательный,1717,Крылья,Ангарский,0,1,Монументы OpenTripMap.xlsx,"historic,monuments_and_memorials,interesting_places,monuments",1,52.551922,103.875389,0,Point,,Другое
"Россия, Иркутская область, Ангарск, улица Чайковского",Культурно-познавательный туризм,Культурно-познавательный,1719,Первостроителям,Ангарский,0,1,Монументы OpenTripMap.xlsx,"historic,monuments_and_memorials,interesting_places,monuments",1,52.532986,103.888916,0,Point,,Другое
"Россия, Иркутская область, село Баяндай",Культурно-познавательный туризм,Культурно-познавательный,1788,"Стелла ""Баяндай""",Баяндаевский,0,1,Монументы OpenTripMap.xlsx,"historic,monuments_and_memorials,interesting_places,monuments",1,53.041542,105.509689,0,Point,,Другое
"Россия, Иркутская область, Бодайбинский район, Артёмовское муниципальное образование",Культурно-познавательный туризм,Культурно-познавательный,1837,Братская могила,Бодайбинский,0,1,Монументы OpenTripMap.xlsx,"historic,monuments_and_memorials,burial_places,interesting_places,war_graves,monuments",1,58.172184,114.575966,0,Point,,Другое
"Россия, Иркутская область, Бодайбинский район, Артёмовское муниципальное образование",Культурно-познавательный туризм,Культурно-познавательный,1836,Жертвам Ленского расстрела 1912 года,Бодайбинский,0,1,Монументы OpenTripMap.xlsx,"historic,monuments_and_memorials,interesting_places,monuments",1,58.185318,114.583794,0,Point,,Другое
"Россия, Иркутская область, Бодайбинский район, Кропоткинское муниципальное образование",Культурно-познавательный туризм,Культурно-познавательный,1838,Мемориал светлого будущего,Бодайбинский,0,1,Монументы OpenTripMap.xlsx,"historic,monuments_and_memorials,interesting_places,monuments",1,58.542042,115.32476,0,Point,,Другое
"Россия, Иркутская область, Бодайбинский район, Мамаканское муниципальное образование, рабочий посёлок Мамакан, улица Гидростроителей",Культурно-познавательный туризм,Культурно-познавательный,1826,Памятник Ленину,Бодайбинский,0,1,Монументы OpenTripMap.xlsx,"historic,monuments_and_memorials,interesting_places,monuments",1,57.812191,114.029221,0,Point,,Другое
"Россия, Иркутская область, Бодайбинское муниципальное образование",Культурно-познавательный туризм,Культурно-познавательный,1825,Стелла границы Иркутской области,Бодайбинский,0,1,Монументы OpenTripMap.xlsx,"historic,monuments_and_memorials,interesting_places,monuments",1,56.703201,114.649033,0,Point,,Другое
"Россия, Иркутская область, Бодайбо",Культурно-познавательный туризм,Культурно-познавательный,1829,Памятник мосту,Бодайбинский,0,1,Монументы OpenTripMap.xlsx,"historic,monuments_and_memorials,interesting_places,monuments",1,57.839298,114.177254,0,Point,,Другое
"Россия, Иркутская область, Бодайбо, Сибирская улица",Культурно-познавательный туризм,Культурно-познавательный,1883,Бодайбо,Бодайбинский,0,1,Монументы OpenTripMap.xlsx,"historic,monuments_and_memorials,interesting_places,monuments",1,57.853008,114.169701,0,Point,,Другое
"Россия, Иркутская область, Бодайбо, улица Розы Люксембург",Культурно-познавательный туризм,Культурно-познавательный,1834,Памятник Березнеровцам,Бодайбинский,0,1,Монументы OpenTripMap.xlsx,"historic,monuments_and_memorials,interesting_places,monuments",1,57.849991,114.203812,0,Point,,Другое
"Россия, Иркутская область, Бодайбо, улица Стояновича",Культурно-познавательный туризм,Культурно-познавательный,1831,Место начала Бодайбо,Бодайбинский,0,1,Монументы OpenTripMap.xlsx,"historic,monuments_and_memorials,interesting_places,monuments",1,57.844135,114.194931,0,Point,,Другое
"Россия, Иркутская область, Бодайбо, улица Стояновича",Культурно-познавательный туризм,Культурно-познавательный,1830,Памятник основанию г. Бодайбо,Бодайбинский,0,1,Монументы OpenTripMap.xlsx,"historic,monuments_and_memorials,interesting_places,monuments",1,57.84383,114.194275,0,Point,,Другое
"Россия, Иркутская область, Бодайбо, улица Урицкого",Культурно-познавательный туризм,Культурно-познавательный,1835,"Памятник Бодайбинской железной дороге, паровоз ГР №352",Бодайбинский,0,1,Монументы OpenTripMap.xlsx,"historic,monuments_and_memorials,interesting_places,monuments",1,57.85471,114.214333,0,Point,,Другое
"Россия, Иркутская область, Бодайбо, улица Урицкого",Культурно-познавательный туризм,Культурно-познавательный,1827,Памятник воинам Бодайбинцам,Бодайбинский,0,1,Монументы OpenTripMap.xlsx,"historic,monuments_and_memorials,interesting_places,monuments",1,57.848518,114.201195,0,Point,,Другое
"Россия, Иркутская область, Братск",Культурно-познавательный туризм,Культурно-познавательный,1798,Мемориал Славы,Братск,0,1,Монументы OpenTripMap.xlsx,"historic,monuments_and_memorials,interesting_places,monuments",1,56.153954,101.648186,0,Point,,Другое
"Россия, Иркутская область, Братск, Депутатская улица",Культурно-познавательный туризм,Культурно-познавательный,1795,Памятник Ленину,Братск,0,1,Монументы OpenTripMap.xlsx,"historic,monuments_and_memorials,interesting_places,monuments",1,56.151043,101.629608,0,Point,,Другое
"Россия, Иркутская область, Братск, жилой район Осиновка",Культурно-познавательный туризм,Культурно-познавательный,1812,Транспортным строителям Восточной Сибири,Братск,0,1,Монументы OpenTripMap.xlsx,"historic,monuments_and_memorials,interesting_places,monuments",1,56.276901,101.894028,0,Point,,Другое
"Россия, Иркутская область, Братск, жилой район Осиновка, улица Ангарстроя",Культурно-познавательный туризм,Культурно-познавательный,1811,Рельса,Братск,0,1,Монументы OpenTripMap.xlsx,"historic,monuments_and_memorials,interesting_places,monuments",1,56.275288,101.894783,0,Point,,Другое
"Россия, Иркутская область, Братск, жилой район Падун",Культурно-познавательный туризм,Культурно-познавательный,1808,Обелиск славы Ленинскому комсомолу,Братск,0,1,Монументы OpenTripMap.xlsx,"historic,monuments_and_memorials,interesting_places,monuments",1,56.288914,101.754631,0,Point,,Другое
"Россия, Иркутская область, Братск, жилой район Центральный",Культурно-познавательный туризм,Культурно-познавательный,1875,Мемориальный комплекс,Братск,0,1,Монументы OpenTripMap.xlsx,"historic,monuments_and_memorials,interesting_places,monuments",1,56.155579,101.648003,0,Point,,Другое
"Россия, Иркутская область, Братск, жилой район Энергетик",Культурно-познавательный туризм,Культурно-познавательный,1809,Памятник С.Б. Погодаеву,Братск,0,1,Монументы OpenTripMap.xlsx,"historic,monuments_and_memorials,interesting_places,monuments",1,56.304955,101.759178,0,Point,,Другое
"Россия, Иркутская область, Братск, жилой район Энергетик",Культурно-познавательный туризм,Культурно-познавательный,1878,Памятник воинам-интернационалистам,Братск,0,1,Монументы OpenTripMap.xlsx,"historic,monuments_and_memorials,interesting_places,monuments",1,56.311764,101.740128,0,Point,,Другое
"Россия, Иркутская область, Братск, улица Воинов-Интернационалистов",Культурно-познавательный туризм,Культурно-познавательный,1877,Рыков Пётр Яковлевич,Братск,0,1,Монументы OpenTripMap.xlsx,"historic,monuments_and_memorials,interesting_places,monuments",1,56.312813,101.727699,0,Point,,Другое
"Россия, Иркутская область, Братск, улица Кирова",Культурно-познавательный туризм,Культурно-познавательный,1797,Пушкин,Братск,0,1,Монументы OpenTripMap.xlsx,"historic,monuments_and_memorials,interesting_places,monuments",1,56.153347,101.628754,0,Point,,Другое
"Россия, Иркутская область, Братск, улица Маршала Жукова",Культурно-познавательный туризм,Культурно-познавательный,1796,Памятник маршалу Г.К. Жукову,Братск,0,1,Монументы OpenTripMap.xlsx,"historic,monuments_and_memorials,interesting_places,monuments",1,56.149002,101.644196,0,Point,,Другое
"Россия, Иркутская область, Братск, улица Мира",Культурно-познавательный туризм,Культурно-познавательный,1794,Кофейный Джин,Братск,0,1,Монументы OpenTripMap.xlsx,"historic,monuments_and_memorials,interesting_places,monuments",1,56.152855,101.61969,0,Point,,Другое
"Россия, Иркутская область, муниципальное образование Братск, Падунский район",Культурно-познавательный туризм,Культурно-познавательный,1810,Памятник строителям Братской ГЭС,Братск,0,1,Монументы OpenTripMap.xlsx,"historic,monuments_and_memorials,interesting_places,monuments",1,56.29541,101.769897,0,Point,,Другое
"Россия, Иркутская область, Братский район, Вихоревское муниципальное образование, Вихоревка",Культурно-познавательный туризм,Культурно-познавательный,1892,Паровоз,Братский,0,1,Монументы OpenTripMap.xlsx,"historic,monuments_and_memorials,interesting_places,monuments",1,56.117954,101.170998,0,Point,,Другое
"Россия, Иркутская область, Братский район, Кобляковское муниципальное образование, территория Аэропорт",Культурно-познавательный туризм,Культурно-познавательный,1879,Як-40,Братский,0,1,Монументы OpenTripMap.xlsx,"historic,monuments_and_memorials,interesting_places,monuments",1,56.364513,101.702637,0,Point,,Другое
"Россия, Иркутская область, Братский район, Покоснинское муниципальное образование, село Покосное",Культурно-познавательный туризм,Культурно-познавательный,1705,Памятник павшим в Великой Отечественной войне,Братский,0,1,Монументы OpenTripMap.xlsx,"historic,monuments_and_memorials,interesting_places,monuments",1,55.522331,101.047653,0,Point,,Другое
"Россия, Иркутская область, Братский район, Прибрежнинское муниципальное образование, посёлок Прибрежный, улица Мира",Культурно-познавательный туризм,Культурно-познавательный,1856,Стелла,Братский,0,1,Монументы OpenTripMap.xlsx,"historic,monuments_and_memorials,interesting_places,monuments",1,55.209156,100.69529,0,Point,,Другое
"Россия, Иркутская область, рабочий посёлок Жигалово, Советская улица",Культурно-познавательный туризм,Культурно-познавательный,1799,Памятник В.И.Ленину,Жигаловский,0,1,Монументы OpenTripMap.xlsx,"historic,monuments_and_memorials,interesting_places,monuments",1,54.812687,105.151779,0,Point,,Другое
"Россия, Иркутская область, Заларинский район, Бажирское муниципальное образование",Культурно-познавательный туризм,Культурно-познавательный,1790,Стелла,Заларинский,0,1,Монументы OpenTripMap.xlsx,"historic,monuments_and_memorials,interesting_places,monuments",1,53.629566,102.567566,0,Point,,Другое
"Россия, Иркутская область, Заларинский район, Веренское муниципальное образование, село Веренка",Культурно-познавательный туризм,Культурно-познавательный,1899,Павшим воинам,Заларинский,0,1,Монументы OpenTripMap.xlsx,"historic,monuments_and_memorials,interesting_places,monuments",1,53.691242,102.217247,0,Point,,Другое
"Россия, Иркутская область, Зима, улица Кирова",Культурно-познавательный туризм,Культурно-познавательный,1791,Паровоз,Зима,0,1,Монументы OpenTripMap.xlsx,"historic,monuments_and_memorials,interesting_places,monuments",1,53.925407,102.053116,0,Point,,Другое
"Россия, Иркутская область, Зима, улица Орджоникидзе",Культурно-познавательный туризм,Культурно-познавательный,1855,Мемориальный комплекс Славы,Зима,0,1,Монументы OpenTripMap.xlsx,"historic,monuments_and_memorials,interesting_places,monuments",1,53.929474,102.062309,0,Point,,Другое
"Россия, Иркутская область, Зиминский район, Филипповское муниципальное образование",Культурно-познавательный туризм,Культурно-познавательный,1792,Памятник красногвардейцу,Зиминский,0,1,Монументы OpenTripMap.xlsx,"historic,monuments_and_memorials,interesting_places,monuments",1,53.951027,102.202736,0,Point,,Другое
"Россия, Иркутск, Депутатская улица",Культурно-познавательный туризм,Культурно-познавательный,1677,"Танк ""Иркутский комсомолец""",Иркутск,0,1,Монументы OpenTripMap.xlsx,"historic,monuments_and_memorials,interesting_places,monuments",1,52.279087,104.31752,0,Point,,Другое
"Россия, Иркутск, Кировский район",Культурно-познавательный туризм,Культурно-познавательный,1746,М. Горькому,Иркутск,0,1,Монументы OpenTripMap.xlsx,"historic,monuments_and_memorials,interesting_places,monuments",1,52.282681,104.281387,0,Point,,Другое
"Россия, Иркутск, Кировский район",Культурно-познавательный туризм,Культурно-познавательный,1757,Памятник В.И. Ленину,Иркутск,0,1,Монументы OpenTripMap.xlsx,"historic,monuments_and_memorials,interesting_places,monuments",1,52.287086,104.284805,0,Point,,Другое
"Россия, Иркутск, Кировский район",Культурно-познавательный туризм,Культурно-познавательный,1753,"Памятник врачам и медсестрам, погибшим в годы Великой Отечественной Войны (ВОВ)",Иркутск,0,1,Монументы OpenTripMap.xlsx,"historic,monuments_and_memorials,interesting_places,monuments",1,52.27422,104.282494,0,Point,,Другое
"Россия, Иркутск, Кировский район",Культурно-познавательный туризм,Культурно-познавательный,1745,Слоник,Иркутск,0,1,Монументы OpenTripMap.xlsx,"historic,monuments_and_memorials,interesting_places,monuments",1,52.279316,104.279175,0,Point,,Другое
"Россия, Иркутск, Кировский район",Культурно-познавательный туризм,Культурно-познавательный,1744,Черепашка,Иркутск,0,1,Монументы OpenTripMap.xlsx,"historic,monuments_and_memorials,interesting_places,monuments",1,52.279316,104.279045,0,Point,,Другое
"Россия, Иркутск, Красноармейская улица",Культурно-познавательный туризм,Культурно-познавательный,1754,Пожарным и спасателям,Иркутск,0,1,Монументы OpenTripMap.xlsx,"historic,monuments_and_memorials,interesting_places,monuments",1,52.278099,104.285736,0,Point,,Другое
"Россия, Иркутск, Ленинский округ",Культурно-познавательный туризм,Культурно-познавательный,1779,Краев Сашенька 13.05.1988-10.05.1996,Иркутск,0,1,Монументы OpenTripMap.xlsx,"historic,monuments_and_memorials,interesting_places,monuments",1,52.397945,104.140266,0,Point,,Другое
"Россия, Иркутск, Ленинский округ",Культурно-познавательный туризм,Культурно-познавательный,1897,Тюльпан,Иркутск,0,1,Монументы OpenTripMap.xlsx,"historic,monuments_and_memorials,interesting_places,monuments",1,52.329952,104.233109,0,Point,,Другое
"Россия, Иркутск, Ленинский округ",Культурно-познавательный туризм,Культурно-познавательный,1739,Як-28,Иркутск,0,1,Монументы OpenTripMap.xlsx,"historic,monuments_and_memorials,interesting_places,monuments",1,52.355335,104.210114,0,Point,,Другое
"Россия, Иркутск, Лисихинское кладбище",Культурно-познавательный туризм,Культурно-познавательный,1766,"Воинам, умершим от ран в госпиталях Иркутска 1941—1945",Иркутск,0,1,Монументы OpenTripMap.xlsx,"historic,monuments_and_memorials,interesting_places,monuments",1,52.26244,104.338478,0,Point,,Другое
"Россия, Иркутск, Новоленинское кладбище",Культурно-познавательный туризм,Культурно-познавательный,1737,мама,Иркутск,0,1,Монументы OpenTripMap.xlsx,"historic,monuments_and_memorials,interesting_places,monuments",1,52.32785,104.168709,0,Point,,Другое
"Россия, Иркутск, Пролетарская улица",Культурно-познавательный туризм,Культурно-познавательный,1758,Памятник Леониду Гайдаю,Иркутск,0,1,Монументы OpenTripMap.xlsx,"historic,monuments_and_memorials,interesting_places,monuments",1,52.286865,104.287239,0,Point,,Другое
"Россия, Иркутск, Радищевское кладбище",Культурно-познавательный туризм,Культурно-познавательный,1775,Радищевское кладбище,Иркутск,0,1,Монументы OpenTripMap.xlsx,"historic,monuments_and_memorials,interesting_places,monuments",1,52.32021,104.331825,0,Point,,Другое
"Россия, Иркутск, Советская улица",Культурно-познавательный туризм,Культурно-познавательный,1764,Святому праведному Иоанну Кронштадскому,Иркутск,0,1,Монументы OpenTripMap.xlsx,"historic,monuments_and_memorials,interesting_places,monuments",1,52.279701,104.321327,0,Point,,Другое
"Россия, Иркутск, Татарское кладбище",Культурно-познавательный туризм,Культурно-познавательный,1752,Старое мусульманское кладбище,Иркутск,0,1,Монументы OpenTripMap.xlsx,"historic,monuments_and_memorials,interesting_places,monuments",1,52.258919,104.318161,0,Point,,Другое
"Россия, Иркутск, бульвар Гагарина",Культурно-познавательный туризм,Культурно-познавательный,1742,Памятник Солдатам Правопорядка,Иркутск,0,1,Монументы OpenTripMap.xlsx,"historic,monuments_and_memorials,interesting_places,monuments",1,52.283089,104.270844,0,Point,,Другое
"Россия, Иркутск, бульвар Гагарина",Культурно-познавательный туризм,Культурно-познавательный,1682,Ю. А. Гагарину,Иркутск,0,1,Монументы OpenTripMap.xlsx,"historic,monuments_and_memorials,interesting_places,monuments",1,52.277275,104.276466,0,Point,,Другое
"Россия, Иркутск, городок ИВАТУ",Культурно-познавательный туризм,Культурно-познавательный,1770,Ан-24Т,Иркутск,0,1,Монументы OpenTripMap.xlsx,"historic,monuments_and_memorials,interesting_places,monuments",1,52.270153,104.348595,0,Point,,Другое
"Россия, Иркутск, городок ИВАТУ",Культурно-познавательный туризм,Культурно-познавательный,1767,Ил-76ПП,Иркутск,0,1,Монументы OpenTripMap.xlsx,"historic,monuments_and_memorials,interesting_places,monuments",1,52.269085,104.347427,0,Point,,Другое
"Россия, Иркутск, городок ИВАТУ",Культурно-познавательный туризм,Культурно-познавательный,1851,Ми-24Д,Иркутск,0,1,Монументы OpenTripMap.xlsx,"historic,monuments_and_memorials,interesting_places,monuments",1,52.271084,104.34803,0,Point,,Другое
"Россия, Иркутск, городок ИВАТУ",Культурно-познавательный туризм,Культурно-познавательный,1769,Ми-8,Иркутск,0,1,Монументы OpenTripMap.xlsx,"historic,monuments_and_memorials,interesting_places,monuments",1,52.271206,104.347832,0,Point,,Другое
"Россия, Иркутск, городок ИВАТУ",Культурно-познавательный туризм,Культурно-познавательный,1771,МиГ-29,Иркутск,0,1,Монументы OpenTripMap.xlsx,"historic,monuments_and_memorials,interesting_places,monuments",1,52.270489,104.34877,0,Point,,Другое
