address,agr_type,Calculate,id,name,region,sameness,sameness_group,source,type,counter,lat,lon,original_address,points,reffers_to,category
"Заводская ул., 1Д, п. г. т. Залари",Активный туризм,Активный,0,Дельфин,Заларинский,0,1,все_yandex_отфильровано_обединено_нормировано_25_03_2024.csv,бассейн,1,53.569431,102.524252,1,Point,,Активный
"1-я ул. Лермонтова, 6, Черемхово",Активный туризм,Активный,1,Плавательный бассейн 70 лет Великой Победы,Черемховский,1,1,все_yandex_отфильровано_обединено_нормировано_25_03_2024.csv,бассейн,1,53.137503,103.086272,1,Point,,Активный
"ул. Промучасток, 7, Свирск",Активный туризм,Активный,2,Бассейн,Черемховский,0,1,все_yandex_отфильровано_обединено_нормировано_25_03_2024.csv,бассейн,1,53.086562,103.35278,1,Point,,Активный
"Байкальская ул., 253/1",Активный туризм,Активный,3,ВСК Солнечный,Иркутск,0,1,все_yandex_отфильровано_обединено_нормировано_25_03_2024.csv,спортивный комплекс;бассейн,1,52.256546,104.350145,1,Point,,Активный
"ул. Чернышевского, 12",Активный туризм,Активный,4,Дворец спорта Изумруд,Иркутск,0,1,все_yandex_отфильровано_обединено_нормировано_25_03_2024.csv,спортивный комплекс;спортивный;тренажёрный зал;бассейн,1,52.271409,104.256288,1,Point,,Активный
"Кооперативный пер., 1",Активный туризм,Активный,5,Дворец спорта Юность,Иркутск,1,1,все_yandex_отфильровано_обединено_нормировано_25_03_2024.csv,спортивный комплекс;спортивная школа;бассейн,1,52.288109,104.284039,1,Point,,Активный
"Красноказачья ул., 74/1",Активный туризм,Активный,6,Киндерпул,Иркутск,0,1,все_yandex_отфильровано_обединено_нормировано_25_03_2024.csv,бассейн,1,52.26817,104.326655,1,Point,,Активный
"ул. Авиастроителей, 4А/1",Активный туризм,Активный,7,Кристалл,Иркутск,1,1,все_yandex_отфильровано_обединено_нормировано_25_03_2024.csv,бассейн,1,52.350989,104.22646,1,Point,,Активный
"18-й Советский пер., 5",Активный туризм,Активный,8,Спартак,Иркутск,0,1,все_yandex_отфильровано_обединено_нормировано_25_03_2024.csv,бассейн;оздоровительный центр,1,52.34805,104.169297,1,Point,,Лечебно-оздоровительный
"бул. Рябикова, 48",Активный туризм,Активный,9,Лидер,Иркутск,0,1,все_yandex_отфильровано_обединено_нормировано_25_03_2024.csv,спортивная школа;спортивный комплекс;спортивный клуб;секция;бассейн,1,52.258613,104.211907,1,Point,,Активный
"Байкальская ул., 267В",Активный туризм,Активный,10,Бассейн,Иркутск,0,1,все_yandex_отфильровано_обединено_нормировано_25_03_2024.csv,бассейн;спортивный клуб;секция,1,52.255703,104.362168,1,Point,,Активный
"Советская ул., 58/1",Активный туризм,Активный,11,XFit,Иркутск,0,1,все_yandex_отфильровано_обединено_нормировано_25_03_2024.csv,фитнес-клуб;бассейн,1,52.275824,104.304594,1,Point,,Активный
"Байкальская ул., 202/13",Активный туризм,Активный,12,Аквапузики.рф,Иркутск,0,1,все_yandex_отфильровано_обединено_нормировано_25_03_2024.csv,бассейн,1,52.25541,104.32252,1,Point,,Активный
"Советская ул., 109/1",Активный туризм,Активный,13,Ion Fitness Club,Иркутск,1,1,все_yandex_отфильровано_обединено_нормировано_25_03_2024.csv,фитнес-клуб;спортивный;тренажёрный зал;бассейн,1,52.280313,104.340438,1,Point,,Активный
"2-я Железнодорожная ул., 15А",Активный туризм,Активный,14,Ныряем,Иркутск,0,1,все_yandex_отфильровано_обединено_нормировано_25_03_2024.csv,бассейн,1,52.290228,104.246067,1,Point,,Активный
"Красноказачья ул., 16",Активный туризм,Активный,15,Граfit,Иркутск,0,1,все_yandex_отфильровано_обединено_нормировано_25_03_2024.csv,фитнес-клуб;бассейн;массажный салон,1,52.281468,104.318011,1,Point,,Активный
"ул. Кожова, 10",Активный туризм,Активный,16,Весна,Иркутск,0,1,все_yandex_отфильровано_обединено_нормировано_25_03_2024.csv,фитнес-клуб;спортивный;тренажёрный зал;бассейн,1,52.270834,104.28606,1,Point,,Активный
"ул. Боткина, 1А",Активный туризм,Активный,17,Звездочка,Иркутск,0,1,все_yandex_отфильровано_обединено_нормировано_25_03_2024.csv,бассейн;соляная пещера,1,52.289125,104.24742,1,Point,,Природный
"12, микрорайон Радужный",Лечебно-оздоровительный туризм,Лечебно-оздоровительный,18,Аквабебипузики,Иркутск,0,1,все_yandex_отфильровано_обединено_нормировано_25_03_2024.csv,оздоровительный центр;бассейн,1,52.231583,104.280867,1,Point,,Лечебно-оздоровительный
"пр. Юрия Тена, 18",Активный туризм,Активный,19,Нерпёнок,Иркутск,0,1,все_yandex_отфильровано_обединено_нормировано_25_03_2024.csv,бассейн;спортивный клуб;секция,1,52.253036,104.259347,1,Point,,Активный
"ул. Пискунова, 148",Активный туризм,Активный,20,Осьминожка,Иркутск,0,1,все_yandex_отфильровано_обединено_нормировано_25_03_2024.csv,бассейн,1,52.268895,104.336806,1,Point,,Активный
"Депутатская ул., 42",Активный туризм,Активный,21,Аквабебипузики,Иркутск,0,1,все_yandex_отфильровано_обединено_нормировано_25_03_2024.csv,бассейн;оздоровительный центр,1,52.272851,104.320585,1,Point,,Лечебно-оздоровительный
"Байкальская ул., 319",Активный туризм,Активный,22,Тукан,Иркутск,0,1,все_yandex_отфильровано_обединено_нормировано_25_03_2024.csv,бассейн,1,52.257634,104.364394,1,Point,,Активный
"ул. Афанасьева, 1/4, микрорайон Первомайский",Активный туризм,Активный,23,Аквакарапузики,Иркутск,0,1,все_yandex_отфильровано_обединено_нормировано_25_03_2024.csv,бассейн;спа-салон,1,52.259111,104.237264,1,Point,,Активный
"24, микрорайон Берёзовый, рабочий посёлок Маркова",Активный туризм,Активный,24,Маленькая Осьминожка,Иркутский,0,1,все_yandex_отфильровано_обединено_нормировано_25_03_2024.csv,бассейн,1,52.224897,104.251016,1,Point,,Активный
"пр. Юрия Тена, 12/3",Активный туризм,Активный,25,Pro Плавание,Иркутск,0,1,все_yandex_отфильровано_обединено_нормировано_25_03_2024.csv,бассейн,1,52.252183,104.257306,1,Point,,Активный
"ул. Ядринцева, 1/8",Активный туризм,Активный,26,На волне,Иркутск,0,1,все_yandex_отфильровано_обединено_нормировано_25_03_2024.csv,бассейн,1,52.278848,104.33597,1,Point,,Активный
"ул. Александра Невского, 97/1",Активный туризм,Активный,27,Бэби пул,Иркутск,0,1,все_yandex_отфильровано_обединено_нормировано_25_03_2024.csv,бассейн,1,52.268277,104.315372,1,Point,,Активный
"просп. Маршала Жукова, 13/2",Активный туризм,Активный,28,World Class,Иркутск,0,1,все_yandex_отфильровано_обединено_нормировано_25_03_2024.csv,фитнес-клуб;спортивный;тренажёрный зал;бассейн,1,52.248265,104.358158,1,Point,,Активный
"ул. Клары Цеткин, 16",Лечебно-оздоровительный туризм,Лечебно-оздоровительный,29,Морская черепашка,Иркутск,0,1,все_yandex_отфильровано_обединено_нормировано_25_03_2024.csv,оздоровительный центр;бассейн,1,52.277401,104.252839,1,Point,,Лечебно-оздоровительный
"Верхняя наб., 167/2",Активный туризм,Активный,30,Бонифаций,Иркутск,0,1,все_yandex_отфильровано_обединено_нормировано_25_03_2024.csv,бассейн,1,52.250415,104.332349,1,Point,,Активный
"Пулковский пер., 24/2",Активный туризм,Активный,31,Маячок,Иркутск,0,1,все_yandex_отфильровано_обединено_нормировано_25_03_2024.csv,бассейн;фитнес-клуб;центр развития ребёнка,1,52.352272,104.221081,1,Point,,Активный
"ул. Маршала Говорова, 5А",Активный туризм,Активный,32,Капелька,Иркутск,0,1,все_yandex_отфильровано_обединено_нормировано_25_03_2024.csv,бассейн;центр развития ребёнка,1,52.339803,104.226627,1,Point,,Активный
"просп. Маршала Жукова, 36А/4",Активный туризм,Активный,33,River Club Крылья,Иркутск,0,1,все_yandex_отфильровано_обединено_нормировано_25_03_2024.csv,бассейн,1,52.250726,104.346454,1,Point,,Активный
"Красноказачья ул., 16",Активный туризм,Активный,34,Baby Clubik,Иркутск,0,1,все_yandex_отфильровано_обединено_нормировано_25_03_2024.csv,бассейн,1,52.281429,104.318093,1,Point,,Активный
"ул. Ворошилова, 2А, Ангарск",Активный туризм,Активный,35,Ангара,Ангарский,1,1,все_yandex_отфильровано_обединено_нормировано_25_03_2024.csv,спортивная школа;спортивный;тренажёрный зал;стадион;каток;бассейн;дополнительное образование,1,52.540191,103.874994,1,Point,,Развлекательный
"33, 215-й квартал, Ангарск",Активный туризм,Активный,36,World Class,Ангарский,0,1,все_yandex_отфильровано_обединено_нормировано_25_03_2024.csv,фитнес-клуб;бассейн;учебный центр,1,52.498131,103.839888,1,Point,,Активный
"6, 206-й квартал, Ангарск",Активный туризм,Активный,37,Аквамир,Ангарский,0,1,все_yandex_отфильровано_обединено_нормировано_25_03_2024.csv,бассейн;спортивный клуб;секция,1,52.504269,103.830956,1,Point,,Активный
"Иркутская область, Ангарск, парк профилактория Родник",Активный туризм,Активный,38,Оздоровительный комплекс,Ангарский,0,1,все_yandex_отфильровано_обединено_нормировано_25_03_2024.csv,бассейн,1,52.523909,103.873366,1,Point,,Лечебно-оздоровительный
"2/1, 71-й квартал, Ангарск",Активный туризм,Активный,39,Бассейн Ангара,Ангарский,0,1,все_yandex_отфильровано_обединено_нормировано_25_03_2024.csv,бассейн;спортивное объединение,1,52.539391,103.877187,1,Point,,Активный
"Иркутская область, Ангарск, парк профилактория Родник",Активный туризм,Активный,40,Бассейн,Ангарский,0,1,все_yandex_отфильровано_обединено_нормировано_25_03_2024.csv,бассейн,1,52.524031,103.873294,1,Point,,Активный
"Иркутская область, Ангарское городское муниципальное образование",Активный туризм,Активный,41,Бассейн,Ангарский,0,1,все_yandex_отфильровано_обединено_нормировано_25_03_2024.csv,бассейн,1,52.44107,103.742596,1,Point,,Активный
"Иркутская область, Ангарский городской округ",Активный туризм,Активный,42,Бассейн,Ангарский,0,1,все_yandex_отфильровано_обединено_нормировано_25_03_2024.csv,бассейн,1,52.442973,103.750243,1,Point,,Активный
"Восточная ул., 21, Ангарск",Активный туризм,Активный,43,Самсара,Ангарский,0,1,все_yandex_отфильровано_обединено_нормировано_25_03_2024.csv,спа-салон;бассейн;массажный салон,1,52.553412,103.890307,1,Point,,Активный
"16, 19-й микрорайон, Ангарск",Активный туризм,Активный,44,Бассейн,Ангарский,0,1,все_yandex_отфильровано_обединено_нормировано_25_03_2024.csv,бассейн,1,52.506074,103.848305,1,Point,,Активный
"100, 20-й квартал, Шелехов",Активный туризм,Активный,45,МАУ Оздоровительный центр,Шелеховский,0,1,все_yandex_отфильровано_обединено_нормировано_25_03_2024.csv,аквапарк;спортивный;тренажёрный зал;бассейн,1,52.215606,104.096092,1,Point,,Природный
"Центральный просп., 4, Шелехов",Активный туризм,Активный,46,Лазурный,Шелеховский,1,1,все_yandex_отфильровано_обединено_нормировано_25_03_2024.csv,бассейн,1,52.209789,104.077549,1,Point,,Активный
"Иркутская область, городской округ Усолье-Сибирское",Активный туризм,Активный,47,Бассейн Дельфин,не обнаружено,0,1,все_yandex_отфильровано_обединено_нормировано_25_03_2024.csv,бассейн,1,52.781584,103.62774,1,Point,,Активный
"Фестивальный пр., 1А, Усолье-Сибирское",Активный туризм,Активный,48,Физкультурно-оздоровительный комплекс Чайка,не обнаружено,0,1,все_yandex_отфильровано_обединено_нормировано_25_03_2024.csv,бассейн,1,52.758417,103.642988,1,Point,,Лечебно-оздоровительный
"Комсомольский просп., 105, Усолье-Сибирское",Активный туризм,Активный,49,Нептун,не обнаружено,1,1,все_yandex_отфильровано_обединено_нормировано_25_03_2024.csv,бассейн;спортивный;тренажёрный зал;спа-салон,1,52.736676,103.661786,1,Point,,Активный
"41А, микрорайон Университетский",Активный туризм,Активный,50,World Class Lite,Иркутск,0,1,все_yandex_отфильровано_обединено_нормировано_25_03_2024.csv,фитнес-клуб;спортивный;тренажёрный зал;бассейн,1,52.255333,104.249279,1,Point,,Активный
"Деповский пер., 7",Активный туризм,Активный,51,Бассейн,Иркутск,0,1,все_yandex_отфильровано_обединено_нормировано_25_03_2024.csv,бассейн,1,52.337871,104.202471,1,Point,,Активный
"Байкальская ул., 319",Активный туризм,Активный,52,Tocan,Иркутск,0,1,все_yandex_отфильровано_обединено_нормировано_25_03_2024.csv,бассейн,1,52.257655,104.364467,1,Point,,Активный
"ул. Дыбовского, 8/9",Лечебно-оздоровительный туризм,Лечебно-оздоровительный,53,Посейдония,Иркутск,0,1,все_yandex_отфильровано_обединено_нормировано_25_03_2024.csv,оздоровительный центр;бассейн;медицинская реабилитация,1,52.259955,104.354584,1,Point,,Лечебно-оздоровительный
"ул. Розы Люксембург, 215В",Активный туризм,Активный,54,Центр материнства и детства,Иркутск,0,1,все_yandex_отфильровано_обединено_нормировано_25_03_2024.csv,бассейн;центр развития ребёнка,1,52.349015,104.17845,1,Point,,Активный
"Байкальская ул., 253/1",Активный туризм,Активный,55,Осознанное Плавание,Иркутск,1,1,все_yandex_отфильровано_обединено_нормировано_25_03_2024.csv,спортивный клуб;секция;бассейн;тренинги,1,52.256546,104.350145,1,Point,,Активный
"28, корп. 1, микрорайон Зелёный",Активный туризм,Активный,56,Бассейн,Иркутск,0,1,все_yandex_отфильровано_обединено_нормировано_25_03_2024.csv,бассейн,1,52.33079,104.36624,1,Point,,Активный
"Байкальская ул., 253/1",Активный туризм,Активный,57,"Федерация синхронного плавания Иркутской области, школа синхронного плавания Олимпийская волна",Иркутск,1,1,все_yandex_отфильровано_обединено_нормировано_25_03_2024.csv,спортивный клуб;секция;бассейн;центр развития ребёнка,1,52.256546,104.350145,1,Point,,Активный
"ул. Розы Люксембург, 215В",Активный туризм,Активный,58,Выше неба,Иркутск,0,1,все_yandex_отфильровано_обединено_нормировано_25_03_2024.csv,бассейн,1,52.349284,104.178502,1,Point,,Активный
"Байкальская ул., 253/1",Активный туризм,Активный,59,Волна,Иркутск,2,0,все_yandex_отфильровано_обединено_нормировано_25_03_2024.csv,спортивная школа;спортивный клуб;секция;бассейн,0,52.256546,104.350145,1,Point,55.0,Активный
"ул. Летописца Нита Романова, 9",Активный туризм,Активный,60,Капитошка,Иркутск,0,1,все_yandex_отфильровано_обединено_нормировано_25_03_2024.csv,бассейн,1,52.350465,104.145994,1,Point,,Активный
"26, Олимпийский микрорайон, Саянск",Лечебно-оздоровительный туризм,Лечебно-оздоровительный,61,Вок Бодрость,Саянск,0,1,все_yandex_отфильровано_обединено_нормировано_25_03_2024.csv,оздоровительный центр;бассейн,1,54.112374,102.179854,1,Point,,Лечебно-оздоровительный
"Железнодорожная ул., 2А, Бодайбо",Активный туризм,Активный,62,Бассейн,Бодайбинский,0,1,все_yandex_отфильровано_обединено_нормировано_25_03_2024.csv,бассейн,1,57.852951,114.215667,1,Point,,Активный
"4, микрорайон Радужный",Активный туризм,Активный,63,Roman's Gym,Иркутск,0,1,все_yandex_отфильровано_обединено_нормировано_25_03_2024.csv,фитнес-клуб;спортивный клуб;секция;бассейн,1,52.23196,104.280412,1,Point,,Активный
"Байкальская ул., 253/1",Активный туризм,Активный,64,Школа плавания Павла Мутина,Иркутск,2,0,все_yandex_отфильровано_обединено_нормировано_25_03_2024.csv,школа плавания;спортивный клуб;секция;бассейн,0,52.256678,104.350639,1,Point,57.0,Активный
"Сиреневая ул., 1, село Хомутово",Активный туризм,Активный,65,Развивающий центр Радуга,Иркутский,0,1,все_yandex_отфильровано_обединено_нормировано_25_03_2024.csv,бассейн;фитнес-клуб;центр развития ребёнка,1,52.474324,104.329192,1,Point,,Активный
"Байкальская ул., 253/1",Активный туризм,Активный,66,Баттерфляй,Иркутск,0,1,все_yandex_отфильровано_обединено_нормировано_25_03_2024.csv,спортивный комплекс;спортивный клуб;секция;бассейн,1,52.256546,104.350145,1,Point,,Активный
"ул. Чернышевского, 12",Активный туризм,Активный,67,Федерация синхронного плавания Иркутской области,Иркутск,0,1,все_yandex_отфильровано_обединено_нормировано_25_03_2024.csv,спортивный клуб;секция;спортивная школа;бассейн,1,52.271582,104.256226,1,Point,,Активный
"Байкальская ул., 267В",Активный туризм,Активный,68,Atmos,Иркутск,0,1,все_yandex_отфильровано_обединено_нормировано_25_03_2024.csv,бассейн;спортивная школа,1,52.255565,104.361967,1,Point,,Активный
"Иркутский район, Байкальский тракт, 10-й километр, 11Б",Активный туризм,Активный,69,Бассейны,Иркутский,0,1,все_yandex_отфильровано_обединено_нормировано_25_03_2024.csv,бассейн,1,52.25006,104.41285,1,Point,,Активный
"Молодёжный пер., 1А, посёлок Молодёжный",Активный туризм,Активный,70,Лёвушка,Иркутский,0,1,все_yandex_отфильровано_обединено_нормировано_25_03_2024.csv,бассейн;центр развития ребёнка,1,52.230246,104.41131,1,Point,,Активный
"Солнечная ул., 4, жилой район Энергетик, Братск",Активный туризм,Активный,71,Спортивный комплекс Солнечный,Братск,0,1,все_yandex_отфильровано_обединено_нормировано_25_03_2024.csv,спортивный клуб;секция;бассейн,1,56.305355,101.759624,1,Point,,Активный
"Пионерская ул., 15, Братск",Активный туризм,Активный,72,Родные ладони,Братск,0,1,все_yandex_отфильровано_обединено_нормировано_25_03_2024.csv,бассейн;оздоровительный центр,1,56.147886,101.624092,1,Point,,Лечебно-оздоровительный
"ул. Ленина, 37, Вихоревка",Активный туризм,Активный,73,Детско-юношеская спортивная школа,Братский,0,1,все_yandex_отфильровано_обединено_нормировано_25_03_2024.csv,спортивная школа;бассейн;дополнительное образование,1,56.131492,101.176406,1,Point,,Активный
"ул. Ленина, 37, Вихоревка",Активный туризм,Активный,74,Таёжный,Братский,0,1,все_yandex_отфильровано_обединено_нормировано_25_03_2024.csv,спортивный комплекс;бассейн,1,56.131146,101.176343,1,Point,,Активный
"Олимпийская ул., 3, жилой район Энергетик, Братск",Активный туризм,Активный,75,Пузырьки,Братск,0,1,все_yandex_отфильровано_обединено_нормировано_25_03_2024.csv,бассейн;спортивный клуб;секция,1,56.311336,101.739048,1,Point,,Активный
"ул. Урицкого, 13А, Тулун",Активный туризм,Активный,76,Дельфин,Тулун,0,1,все_yandex_отфильровано_обединено_нормировано_25_03_2024.csv,бассейн,1,54.561069,100.57649,1,Point,,Активный
"32, микрорайон Юбилейный, Саянск",Активный туризм,Активный,77,"МФСУ Центр физической подготовки Мегаполис-спорт, плавательный бассейн Дельфин",Саянск,0,1,все_yandex_отфильровано_обединено_нормировано_25_03_2024.csv,бассейн,1,54.10853,102.160084,1,Point,,Активный
"16, Центральный микрорайон, Саянск",Активный туризм,Активный,78,Муниципальное образовательное учреждение дополнительного образования Детско-юношеская спортивная школа муниципального образования Плавательный бассейн Золотая рыбка,Саянск,0,1,все_yandex_отфильровано_обединено_нормировано_25_03_2024.csv,бассейн,1,54.115387,102.160054,1,Point,,Активный
"Иркутская область, городской округ Братск",Активный туризм,Активный,79,Бассейн Чайка,Братск,0,1,все_yandex_отфильровано_обединено_нормировано_25_03_2024.csv,бассейн,1,56.167127,101.693606,1,Point,,Активный
"Партизанская ул., 46, п. г. т. Жигалово",Активный туризм,Активный,80,МКОУ ДО ДЮСШ Сила Сибири,Жигаловский,0,1,все_yandex_отфильровано_обединено_нормировано_25_03_2024.csv,спортивная школа;спортплощадка,1,54.812266,105.158683,1,Point,,Активный
"Советская ул., 109/1",Активный туризм,Активный,81,Ion SPA Center,Иркутск,2,0,все_yandex_отфильровано_обединено_нормировано_25_03_2024.csv,спа-салон;соляная пещера;косметология;бассейн;оздоровительный центр,0,52.280257,104.340341,1,Point,13.0,Природный
"Кооперативный пер., 1",Активный туризм,Активный,82,Федерация синхронного плавания Иркутской области,Иркутск,0,1,все_yandex_отфильровано_обединено_нормировано_25_03_2024.csv,спортивный клуб;секция;спортивная школа;бассейн,1,52.288034,104.284271,1,Point,,Активный
"Иркутская область, Качугский район, село Манзурка",Активный туризм,Активный,83,Манзурка,Качугский,0,1,все_yandex_отфильровано_обединено_нормировано_25_03_2024.csv,спортивный комплекс,1,53.484434,106.065259,1,Point,,Активный
"Школьная ул., 28, село Анга",Культурно-познавательный туризм,Культурно-познавательный,84,Культурно-просветительский центр имени святителя Иннокентия Иркутского областного краеведческого музея,Качугский,0,1,все_yandex_отфильровано_обединено_нормировано_25_03_2024.csv,культурный центр;музей,1,53.978959,106.194979,1,Point,,Культурно-познавательный
"12А, 6-й квартал, Железногорск-Илимский",Активный туризм,Активный,85,Дельфин,Нижнеилимский,1,1,все_yandex_отфильровано_обединено_нормировано_25_03_2024.csv,бассейн,1,56.583596,104.119071,1,Point,,Активный
"ул. Георгия Димитрова, 10А, Усть-Илимск",Активный туризм,Активный,86,Бассейн Дельфин,Усть-Илимский,0,1,все_yandex_отфильровано_обединено_нормировано_25_03_2024.csv,спортивный комплекс;бассейн;спортивно-развлекательный центр;оздоровительный центр,1,57.950289,102.740343,1,Point,,Развлекательный
"ул. Наймушина, 9А, Усть-Илимск",Активный туризм,Активный,87,Ocean Drive,Усть-Илимский,1,1,все_yandex_отфильровано_обединено_нормировано_25_03_2024.csv,аквапарк;соляная пещера;бассейн,1,57.990076,102.654885,1,Point,,Природный
"ул. Мечтателей, 44, Усть-Илимск",Активный туризм,Активный,88,Бассейн,Усть-Илимский,0,1,все_yandex_отфильровано_обединено_нормировано_25_03_2024.csv,бассейн,1,57.955696,102.731891,1,Point,,Активный
"Иркутская область, Нижнеудинск",Активный туризм,Активный,89,Бассейн,Нижнеудинский,0,1,все_yandex_отфильровано_обединено_нормировано_25_03_2024.csv,бассейн,1,54.877897,99.027828,1,Point,,Активный
,Активный туризм,Активный,90,Универсальный Спортивный комплекс Байкал-спорт,Ольхонский,0,1,все_yandex_отфильровано_обединено_нормировано_25_03_2024.csv,спортивный комплекс;стадион,1,52.797575,106.398663,1,Point,,Развлекательный
"211, микрорайон Гагарина, Байкальск",Активный туризм,Активный,91,Бассейн,Слюдянский,0,1,все_yandex_отфильровано_обединено_нормировано_25_03_2024.csv,бассейн,1,51.524079,104.147626,1,Point,,Активный
"Иркутская область, Слюдянский район",Активный туризм,Активный,92,Бассейн,Слюдянский,0,1,все_yandex_отфильровано_обединено_нормировано_25_03_2024.csv,бассейн,1,51.751124,103.984656,1,Point,,Активный
"Иркутский район, Большереченское муниципальное образование",Активный туризм,Активный,93,Бассейн,Иркутский,0,1,все_yandex_отфильровано_обединено_нормировано_25_03_2024.csv,бассейн,1,52.028131,104.636096,1,Point,,Активный
"Иркутская область, Тайшетский район, Бирюсинск",Активный туризм,Активный,94,Бассейн,Тайшетский,1,1,все_yandex_отфильровано_обединено_нормировано_25_03_2024.csv,бассейн,1,55.96275,97.816502,1,Point,,Активный
"ул. Мира, 4, Тайшет",Активный туризм,Активный,95,Бассейн,Тайшетский,0,1,все_yandex_отфильровано_обединено_нормировано_25_03_2024.csv,бассейн,1,55.93299,98.044766,1,Point,,Активный
"20, микрорайон Новый, Тайшет",Активный туризм,Активный,96,Бассейн,Тайшетский,0,1,все_yandex_отфильровано_обединено_нормировано_25_03_2024.csv,бассейн,1,55.940008,98.030682,1,Point,,Активный
"ул. Речников, 1, Усть-Кут",Активный туризм,Активный,97,Нептун,Усть-Кутский,1,1,все_yandex_отфильровано_обединено_нормировано_25_03_2024.csv,бассейн,1,56.794268,105.77618,1,Point,,Активный
"ул. Кирова, 20А, Усть-Кут",Активный туризм,Активный,98,Волна,Усть-Кутский,0,1,все_yandex_отфильровано_обединено_нормировано_25_03_2024.csv,бассейн,1,56.777464,105.731773,1,Point,,Активный
"ул. Речников, 1, Усть-Кут",Активный туризм,Активный,99,Нептун,Усть-Кутский,2,0,все_yandex_отфильровано_обединено_нормировано_25_03_2024.csv,бассейн,0,56.794322,105.776194,1,Point,97.0,Активный
"Иркутская область, Чунский район, посёлок городского типа Октябрьский",Активный туризм,Активный,100,Факел,Чунский,0,1,все_yandex_отфильровано_обединено_нормировано_25_03_2024.csv,спортивный комплекс,1,56.078164,99.428188,1,Point,,Активный
"Иркутская область, Чунский район, рабочий поселок Чунский",Активный туризм,Активный,101,Чемпион,Чунский,0,1,все_yandex_отфильровано_обединено_нормировано_25_03_2024.csv,спортивный комплекс,1,56.085972,99.665548,1,Point,,Активный
"ул. Карла Маркса, 41/14, Ангарск",Культурно-познавательный туризм,Культурно-познавательный,102,Художественный центр города Ангарска,Ангарский,1,1,все_yandex_отфильровано_обединено_нормировано_25_03_2024.csv,выставочный центр;организация и обслуживание выставок;художественный салон,1,52.538121,103.892234,1,Point,,Другое
"ул. Карла Маркса, 29/13, Ангарск",Культурно-познавательный туризм,Культурно-познавательный,103,Нуга бест,Ангарский,0,1,все_yandex_отфильровано_обединено_нормировано_25_03_2024.csv,выставочный центр,1,52.542985,103.889373,1,Point,,Другое
"9, 59-й квартал, Ангарск",Культурно-познавательный туризм,Культурно-познавательный,104,Художественный центр,Ангарский,0,1,все_yandex_отфильровано_обединено_нормировано_25_03_2024.csv,художественная мастерская;выставочный центр,1,52.547699,103.884679,1,Point,,Другое
"Иркутская область, Ангарск, улица Коминтерна",Культурно-познавательный туризм,Культурно-познавательный,105,Школа Искусств № 3,Ангарский,0,1,все_yandex_отфильровано_обединено_нормировано_25_03_2024.csv,выставочный центр,1,52.517892,103.873328,1,Point,,Другое
"ул. Сергеева, 3, стр. 4",Культурно-познавательный туризм,Культурно-познавательный,106,Че Гевара,Иркутск,0,1,все_yandex_отфильровано_обединено_нормировано_25_03_2024.csv,выставочный центр,1,52.265895,104.233039,1,Point,,Другое
"ул. Октябрьской Революции, 3",Культурно-познавательный туризм,Культурно-познавательный,107,Галерея Виктора Бронштейна,Иркутск,1,1,все_yandex_отфильровано_обединено_нормировано_25_03_2024.csv,музей;организация и обслуживание выставок;выставочный центр,1,52.290221,104.302393,1,Point,,Культурно-познавательный
"ул. Степана Разина, 6",Культурно-познавательный туризм,Культурно-познавательный,108,Нуга бест,Иркутск,0,1,все_yandex_отфильровано_обединено_нормировано_25_03_2024.csv,выставочный центр,1,52.28608,104.271898,1,Point,,Другое
"ул. Кирова, 7А, село Хомутово",Культурно-познавательный туризм,Культурно-познавательный,109,Выставочная краеведческая экспозиция,Иркутский,0,1,все_yandex_отфильровано_обединено_нормировано_25_03_2024.csv,выставочный центр;достопримечательность,1,52.466272,104.40278,1,Point,,Культурно-познавательный
"Комсомольская ул., 77, Братск",Культурно-познавательный туризм,Культурно-познавательный,110,Братский Городской Объединенный Музей Истории Освоения Ангары,Братск,1,1,все_yandex_отфильровано_обединено_нормировано_25_03_2024.csv,музей;выставочный центр,1,56.167343,101.619035,1,Point,,Культурно-познавательный
"ул. Гиндина, 6, жилой район Энергетик, Братск",Культурно-познавательный туризм,Культурно-познавательный,111,МегоЛего,Братск,0,1,все_yandex_отфильровано_обединено_нормировано_25_03_2024.csv,выставочный центр;игровая комната,1,56.313983,101.751022,1,Point,,Другое
"Байкальская ул., 253А",Культурно-познавательный туризм,Культурно-познавательный,112,Сибэкспоцентр,Иркутск,0,1,все_yandex_отфильровано_обединено_нормировано_25_03_2024.csv,выставочный центр;организация и обслуживание выставок,1,52.25643,104.353625,1,Point,,Другое
"65, микрорайон Юбилейный, Саянск",Культурно-познавательный туризм,Культурно-познавательный,113,Выставочный зал отдела культуры,Саянск,1,1,все_yandex_отфильровано_обединено_нормировано_25_03_2024.csv,музей;выставочный центр,1,54.102018,102.155745,1,Point,,Культурно-познавательный
"Советская ул., 14, Тулун",Культурно-познавательный туризм,Культурно-познавательный,114,Краеведческий музей,Тулун,1,1,все_yandex_отфильровано_обединено_нормировано_25_03_2024.csv,музей;выставочный центр,1,54.55676,100.57396,1,Point,,Культурно-познавательный
"ул. Бабушкина, 1",Культурно-познавательный туризм,Культурно-познавательный,115,Галерея ЛеАрт,Иркутск,1,1,все_yandex_отфильровано_обединено_нормировано_25_03_2024.csv,организация и обслуживание выставок;выставочный центр,1,52.289113,104.294472,1,Point,,Культурно-познавательный
"ул. Седова, 40",Культурно-познавательный туризм,Культурно-познавательный,116,Dias,Иркутск,1,1,все_yandex_отфильровано_обединено_нормировано_25_03_2024.csv,выставочный центр;художественный салон,1,52.273268,104.292078,1,Point,,Другое
"ул. Карла Маркса, 23",Культурно-познавательный туризм,Культурно-познавательный,117,"Иркутский областной художественный музей имени В. П. Сукачева, Отдел сибирского искусства",Иркутск,1,1,все_yandex_отфильровано_обединено_нормировано_25_03_2024.csv,музей;выставочный центр,1,52.284293,104.287374,1,Point,,Культурно-познавательный
"ул. Чапаева, 76, поселок Листвянка",Культурно-познавательный туризм,Культурно-познавательный,118,Картинная галерея Art Gallery имени В.Ю. Пламеневского,Иркутский,1,1,все_yandex_отфильровано_обединено_нормировано_25_03_2024.csv,музей;выставочный центр,1,51.857585,104.876938,1,Point,,Культурно-познавательный
"ул. Халтурина, 3",Культурно-познавательный туризм,Культурно-познавательный,119,Городской выставочный центр имени В. С. Рогаля,Иркутск,1,1,все_yandex_отфильровано_обединено_нормировано_25_03_2024.csv,выставочный центр;музей,1,52.289413,104.287338,1,Point,,Природный
"ул. Лермонтова, 281/3",Культурно-познавательный туризм,Культурно-познавательный,120,Хочусвойпринт,Иркутск,0,1,все_yandex_отфильровано_обединено_нормировано_25_03_2024.csv,магазин подарков и сувениров;художественная мастерская;выставочный центр,1,52.247314,104.271168,1,Point,,Другое
"ул. Карла Маркса, 2",Культурно-познавательный туризм,Культурно-познавательный,121,Иркутский областной краеведческий музей им. Н. Н. Муравьева-Амурского Отдел истории,Иркутск,1,1,все_yandex_отфильровано_обединено_нормировано_25_03_2024.csv,музей;выставочный центр,1,52.27574,104.278115,1,Point,,Культурно-познавательный
"ул. Ширямова, 38/4",Культурно-познавательный туризм,Культурно-познавательный,122,Музей имени дважды героя СССР Белобородова А.П.,Иркутск,0,1,все_yandex_отфильровано_обединено_нормировано_25_03_2024.csv,музей;конференц-зал;выставочный центр;концертный зал,1,52.264031,104.346525,1,Point,,Культурно-познавательный
"Култукская ул., 46",Культурно-познавательный туризм,Культурно-познавательный,123,Музей лекарственных трав и минералов,Иркутск,1,1,все_yandex_отфильровано_обединено_нормировано_25_03_2024.csv,музей;выставочный центр,1,52.284163,104.330243,1,Point,,Культурно-познавательный
"Иркутская область, Качугский район, деревня Чанчур",Культурно-познавательный туризм,Культурно-познавательный,124,Краеведческая выставка Уголок охотника,Качугский,0,1,все_yandex_отфильровано_обединено_нормировано_25_03_2024.csv,выставочный центр,1,53.824552,106.991004,1,Point,,Культурно-познавательный
"Советская ул., 27А, п. г. т. Мама",Культурно-познавательный туризм,Культурно-познавательный,125,Краеведческий музей Мамско-Чуйского района,Мамско-Чуйский,1,1,все_yandex_отфильровано_обединено_нормировано_25_03_2024.csv,музей,1,58.309676,112.908523,1,Point,,Культурно-познавательный
"просп. Мира, 5, Усть-Илимск",Культурно-познавательный туризм,Культурно-познавательный,126,Усть-Илимская картинная галерея,Усть-Илимский,1,1,все_yandex_отфильровано_обединено_нормировано_25_03_2024.csv,выставочный центр,1,57.955735,102.73876,1,Point,,Культурно-познавательный
"Академическая ул., 1, рабочий посёлок Листвянка",Культурно-познавательный туризм,Культурно-познавательный,127,Байкальский музей,Иркутский,1,1,все_yandex_отфильровано_обединено_нормировано_25_03_2024.csv,музей;выставочный центр,1,51.867947,104.832634,1,Point,,Культурно-познавательный
"211, микрорайон Гагарина, Байкальск",Культурно-познавательный туризм,Культурно-познавательный,128,Музей Природы Южного Прибайкалья,Слюдянский,0,1,все_yandex_отфильровано_обединено_нормировано_25_03_2024.csv,музей,1,51.524497,104.148088,1,Point,,Природный
"ул. Калинина, 1, Бирюсинск",Культурно-познавательный туризм,Культурно-познавательный,129,Бирюсинский краеведческий музей,Тайшетский,1,1,все_yandex_отфильровано_обединено_нормировано_25_03_2024.csv,музей,1,55.962329,97.817697,1,Point,,Культурно-познавательный
"Иркутская область, Тайшетский район, село Николаевка",Развлекательный туризм,Развлекательный,130,Дом культуры,Тайшетский,0,1,все_yandex_отфильровано_обединено_нормировано_25_03_2024.csv,развлекательный центр,1,55.79242,98.172819,1,Point,,Развлекательный
"Карьерная ул., 41А, д. Олха",Активный туризм,Активный,131,Олха,Шелеховский,0,1,все_yandex_отфильровано_обединено_нормировано_25_03_2024.csv,горнолыжная школа;горнолыжный комплекс,1,52.156789,104.100335,1,Point,,Другое
"24А, 4-й квартал, Шелехов",Культурно-познавательный туризм,Культурно-познавательный,132,Выставочный зал музея Г. И. Шелехова,Шелеховский,0,1,все_yandex_отфильровано_обединено_нормировано_25_03_2024.csv,музей,1,52.21263,104.095474,1,Point,,Природный
"1, 4-й микрорайон, Шелехов",Культурно-познавательный туризм,Культурно-познавательный,133,Дом кукол и картин,Шелеховский,0,1,все_yandex_отфильровано_обединено_нормировано_25_03_2024.csv,выставочный центр;клуб для детей и подростков;курсы и мастер-классы,1,52.210981,104.065369,1,Point,,Активный
"39А, 18-й квартал, Шелехов",Культурно-познавательный туризм,Культурно-познавательный,134,Музей Г. И. Шелехова,Шелеховский,1,1,все_yandex_отфильровано_обединено_нормировано_25_03_2024.csv,музей,1,52.214188,104.082035,1,Point,,Природный
"ул. 3 Июля, 17А",Культурно-познавательный туризм,Культурно-познавательный,135,Ремесленное подворье,Иркутск,1,1,все_yandex_отфильровано_обединено_нормировано_25_03_2024.csv,курсы и мастер-классы;выставочный центр,1,52.274218,104.288387,1,Point,,Другое
"ул. Карла Маркса, 38",Культурно-познавательный туризм,Культурно-познавательный,136,Иркутское региональное отделение всероссийской творческой общественной организации художников России,Иркутск,0,1,все_yandex_отфильровано_обединено_нормировано_25_03_2024.csv,творческий коллектив;выставочный центр,1,52.290093,104.295442,1,Point,,Другое
"ул. Декабрьских Событий, 55",Активный туризм,Активный,137,Свал,Иркутск,0,1,все_yandex_отфильровано_обединено_нормировано_25_03_2024.csv,дайвинг;товары для подводного плавания,1,52.288009,104.3005,1,Point,,Другое
"Красноказачья ул., 85",Активный туризм,Активный,138,БайкалТек,Иркутск,0,1,все_yandex_отфильровано_обединено_нормировано_25_03_2024.csv,дайвинг;экскурсии;аренда теплоходов,1,52.275371,104.324695,1,Point,,Другое
"ул. Суворова, 1А, рабочий посёлок Листвянка",Активный туризм,Активный,139,Байкал Фартовый,Иркутский,0,1,все_yandex_отфильровано_обединено_нормировано_25_03_2024.csv,дайвинг,1,51.865104,104.844366,1,Point,,Другое
"Байкальская ул., 236",Культурно-познавательный туризм,Культурно-познавательный,140,Бэста,Иркутск,0,1,все_yandex_отфильровано_обединено_нормировано_25_03_2024.csv,зооцентр;клуб любителей животных;гостиница для животных,1,52.253408,104.327605,1,Point,,Природный
"ул. Баррикад, 34А/1",Развлекательный туризм,Развлекательный,141,Динаморинг,Иркутск,0,1,все_yandex_отфильровано_обединено_нормировано_25_03_2024.csv,картинг;аттракцион;спортивно-развлекательный центр,1,52.291093,104.318979,1,Point,,Развлекательный
"ул. Баррикад, 34А/1",Развлекательный туризм,Развлекательный,142,Динамо ринг,Иркутск,0,1,все_yandex_отфильровано_обединено_нормировано_25_03_2024.csv,картинг;спортивно-развлекательный центр;развлекательный центр,1,52.29187,104.316623,1,Point,,Развлекательный
"8, 254-й квартал, Ангарск",Активный туризм,Активный,143,Клуб подводного плавания Акваскоп,Ангарский,0,1,все_yandex_отфильровано_обединено_нормировано_25_03_2024.csv,дайвинг,1,52.494597,103.856275,1,Point,,Активный
"ул. Горького, 9, рабочий посёлок Листвянка",Активный туризм,Активный,144,Новое измерение,Иркутский,0,1,все_yandex_отфильровано_обединено_нормировано_25_03_2024.csv,дайвинг;спортивный инвентарь и оборудование;катера;лодки;яхты,1,51.859365,104.854952,1,Point,,Активный
"ул. Урицкого, 14",Культурно-познавательный туризм,Культурно-познавательный,145,Иркутский городской клуб любителей кошек Камея,Иркутск,0,1,все_yandex_отфильровано_обединено_нормировано_25_03_2024.csv,зооцентр;клуб любителей животных,1,52.283538,104.291531,1,Point,,Природный
"ул. Трилиссера, 87",Лечебно-оздоровительный туризм,Лечебно-оздоровительный,146,"Байкальская Радуга, офис",Иркутск,0,1,все_yandex_отфильровано_обединено_нормировано_25_03_2024.csv,санаторно-курортное объединение;офис организации,1,52.274951,104.316577,1,Point,,Лечебно-оздоровительный
"ул. Реброва-Денисова, 7А, Усть-Кут",Культурно-познавательный туризм,Культурно-познавательный,147,Усть-Кутский исторический музей,Усть-Кутский,1,1,все_yandex_отфильровано_обединено_нормировано_25_03_2024.csv,музей,1,56.779591,105.749102,1,Point,,Культурно-познавательный
"Иркутская область, городской округ Свирск",Культурно-познавательный туризм,Культурно-познавательный,148,Теремок,Черемховский,0,1,все_yandex_отфильровано_обединено_нормировано_25_03_2024.csv,зоопарк,1,53.072615,103.348773,1,Point,,Природный
"Московская ул., 37, Ангарск",Культурно-познавательный туризм,Культурно-познавательный,149,Живой уголок,Ангарский,0,1,все_yandex_отфильровано_обединено_нормировано_25_03_2024.csv,зоопарк,1,52.542449,103.880597,1,Point,,Природный
"Береговая ул., 61, д. Китой",Культурно-познавательный туризм,Культурно-познавательный,150,Мини зоопарк Лапки,Усольский,0,1,все_yandex_отфильровано_обединено_нормировано_25_03_2024.csv,зоопарк,1,52.530115,103.822805,1,Point,,Природный
"ул. Кольцова, 93",Культурно-познавательный туризм,Культурно-познавательный,151,Иркутский зоосад,Иркутск,0,1,все_yandex_отфильровано_обединено_нормировано_25_03_2024.csv,зоопарк,1,52.263241,104.246118,1,Point,,Природный
"ул. Карла Маркса, 50",Культурно-познавательный туризм,Культурно-познавательный,152,Иркутский зоопарк,Иркутск,1,1,все_yandex_отфильровано_обединено_нормировано_25_03_2024.csv,зоопарк,1,52.294825,104.29984,1,Point,,Природный
"Байкальская ул., 54",Культурно-познавательный туризм,Культурно-познавательный,153,Дом природы,Иркутск,0,1,все_yandex_отфильровано_обединено_нормировано_25_03_2024.csv,зоопарк,1,52.272433,104.305548,1,Point,,Природный
"просп. Маршала Жукова, 36/4",Культурно-познавательный туризм,Культурно-познавательный,154,Сибирский семейный зоопарк,Иркутск,0,1,все_yandex_отфильровано_обединено_нормировано_25_03_2024.csv,зоопарк;детская площадка;экскурсии,1,52.250538,104.346633,1,Point,,Природный
"Иркутская область, Бодайбо",Культурно-познавательный туризм,Культурно-познавательный,155,Дом юннатов,Бодайбинский,1,1,все_yandex_отфильровано_обединено_нормировано_25_03_2024.csv,зоопарк,1,57.849761,114.208033,1,Point,,Природный
"ул. Исток Ангары, 11А, рабочий посёлок Листвянка",Культурно-познавательный туризм,Культурно-познавательный,156,Сибирский зоопарк,Иркутский,0,1,все_yandex_отфильровано_обединено_нормировано_25_03_2024.csv,зоопарк;детская площадка;экскурсии,1,51.872887,104.828633,1,Point,,Природный
"Иркутская область, Эхирит-Булагатский район, автодорога Иркутск - Качуг, 68-й километр, 72",Культурно-познавательный туризм,Культурно-познавательный,157,Золотая орда,Эхирит-Булагатский,1,1,все_yandex_отфильровано_обединено_нормировано_25_03_2024.csv,музей;туристический инфоцентр;зоопарк,1,52.818332,104.800721,1,Point,,Природный
"ул. 60 лет Октября, 5, рабочий посёлок Магистральный",Культурно-познавательный туризм,Культурно-познавательный,158,Казачинско-Ленский районный краеведческий музей,Казачинско-Ленский,1,1,все_yandex_отфильровано_обединено_нормировано_25_03_2024.csv,музей,1,56.16793,107.433461,1,Point,,Культурно-познавательный
"ул. Шишкова, 1, село Ербогачен",Культурно-познавательный туризм,Культурно-познавательный,159,Ербогачёнский литературно-краеведческий музей имени В.Я. Шишкова,Катангский,1,1,все_yandex_отфильровано_обединено_нормировано_25_03_2024.csv,музей,1,61.273059,108.002644,1,Point,,Культурно-познавательный
"ул. 10 Сельхоз, 31, стр. 1, Тайшет",Культурно-познавательный туризм,Культурно-познавательный,160,Zola,Тайшетский,0,1,все_yandex_отфильровано_обединено_нормировано_25_03_2024.csv,зоопарк,1,55.91573,97.929941,1,Point,,Природный
"Иркутская область, Нижнеудинский район, Шумское муниципальное образование, рабочий посёлок Шумский",Активный туризм,Активный,161,Верёвочный парк,Нижнеудинский,0,1,все_yandex_отфильровано_обединено_нормировано_25_03_2024.csv,верёвочный парк,1,54.842249,99.113006,1,Point,,Природный
"ул. Свердлова, 86, село Оса",Культурно-познавательный туризм,Культурно-познавательный,162,Осинский районный историко-краеведческий музей,Осинский,0,1,все_yandex_отфильровано_обединено_нормировано_25_03_2024.csv,музей,1,53.391008,103.876095,1,Point,,Культурно-познавательный
"Советская ул., 3, п. г. т. Усть-Уда",Культурно-познавательный туризм,Культурно-познавательный,163,Усть-Удинский районный краеведческий музей,Усть-Удинский,1,1,все_yandex_отфильровано_обединено_нормировано_25_03_2024.csv,музей,1,54.179166,103.021626,1,Point,,Культурно-познавательный
,Активный туризм,Активный,164,Лыжная база ИрГУСХА,Иркутский,0,1,все_yandex_отфильровано_обединено_нормировано_25_03_2024.csv,лыжная база;зимние развлечения,1,52.246313,104.431523,1,Point,,Другое
"Иркутская область, Нукутский район, деревня Татхал-Онгой",Лечебно-оздоровительный туризм,Лечебно-оздоровительный,165,Унга,Нукутский,0,1,все_yandex_отфильровано_обединено_нормировано_25_03_2024.csv,оздоровительный центр;спортивная школа,1,53.692699,102.715242,1,Point,,Лечебно-оздоровительный
"Карьерная ул., 41А, д. Олха",Активный туризм,Активный,166,Горнолыжный комплекс Олха,Шелеховский,0,1,все_yandex_отфильровано_обединено_нормировано_25_03_2024.csv,горнолыжный комплекс;спортивная школа,1,52.156789,104.100335,1,Point,,Активный
"Советская ул., 33, посёлок Кутулик",Культурно-познавательный туризм,Культурно-познавательный,167,Краеведческий музей Аларского района,Аларский,1,1,все_yandex_отфильровано_обединено_нормировано_25_03_2024.csv,музей,1,53.341195,102.798254,1,Point,,Культурно-познавательный
"Иркутская область, Усольский район, село Сосновка, Парк отдыха",Активный туризм,Активный,168,Верёвочный парк,Усольский,0,1,все_yandex_отфильровано_обединено_нормировано_25_03_2024.csv,верёвочный парк,1,52.820399,103.392005,1,Point,,Природный
"Иркутская область, Ангарский городской округ, горнолыжный комплекс Ангарская Гора",Активный туризм,Активный,169,Ангарская Гора,Ангарский,0,1,все_yandex_отфильровано_обединено_нормировано_25_03_2024.csv,горнолыжный комплекс;зимние развлечения;лыжная база,1,52.436458,103.726002,1,Point,,Природный
"ул. Фаворского, 1Б",Активный туризм,Активный,170,Академический,Иркутск,1,1,все_yandex_отфильровано_обединено_нормировано_25_03_2024.csv,горнолыжный комплекс;зимние развлечения,1,52.246919,104.263682,1,Point,,Другое
"ул. Карла Либкнехта, 58",Активный туризм,Активный,171,"Гора Соболиная, представительство",Иркутск,0,1,все_yandex_отфильровано_обединено_нормировано_25_03_2024.csv,горнолыжный комплекс;лыжная база,1,52.283568,104.301216,1,Point,,Природный
"ул. Дворянова, 15, поселок Балаганск",Культурно-познавательный туризм,Культурно-познавательный,172,Балаганский историко-этнографический музей им. А. С. Башинова,Балаганский,1,1,все_yandex_отфильровано_обединено_нормировано_25_03_2024.csv,музей,1,54.005882,103.06453,1,Point,,Природный
"Иркутская область, Братский район, канатная дорога Орехов Камень",Активный туризм,Активный,173,Оздоровительно-горнолыжный комплекс Орехов Камень,Братский,1,1,все_yandex_отфильровано_обединено_нормировано_25_03_2024.csv,горнолыжный комплекс;зимние развлечения,1,56.479026,101.968133,1,Point,,Природный
"Иркутская область, городской округ Братск",Активный туризм,Активный,174,Гора Пихтовая,Братск,0,1,все_yandex_отфильровано_обединено_нормировано_25_03_2024.csv,горнолыжный комплекс;зимние развлечения,1,56.17478,101.699986,1,Point,,Природный
"ул. Кошевого, 20, Вихоревка",Культурно-познавательный туризм,Культурно-познавательный,175,Вихоревский историко-краеведческий музей,Братский,1,1,все_yandex_отфильровано_обединено_нормировано_25_03_2024.csv,музей,1,56.123859,101.177907,1,Point,,Культурно-познавательный
"Желгайская ул., 59, Тулун",Активный туризм,Активный,176,Лыжная база Снежинка,Тулун,0,1,все_yandex_отфильровано_обединено_нормировано_25_03_2024.csv,горнолыжный комплекс;зимние развлечения;лыжная база,1,54.550409,100.563606,1,Point,,Другое
"ул. Карбышева, 185, Тулун",Активный туризм,Активный,177,Лыжная база,Тулун,0,1,все_yandex_отфильровано_обединено_нормировано_25_03_2024.csv,горнолыжный комплекс;зимние развлечения;лыжная база,1,54.531762,100.6435,1,Point,,Другое
"ул. Чкалова, 68, село Кимильтей",Культурно-познавательный туризм,Культурно-познавательный,178,Историко-краеведческий музей,Зиминский,0,1,все_yandex_отфильровано_обединено_нормировано_25_03_2024.csv,музей,1,54.135113,101.980454,1,Point,,Культурно-познавательный
"Академическая ул., 12, рабочий посёлок Листвянка",Активный туризм,Активный,179,БайкалГора,Иркутский,0,1,все_yandex_отфильровано_обединено_нормировано_25_03_2024.csv,горнолыжный комплекс;зимние развлечения,1,51.872884,104.843606,1,Point,,Природный
"90, микрорайон Красный Ключ, Байкальск",Активный туризм,Активный,180,Байкальский горнолыжный курорт Гора Соболиная,Слюдянский,0,1,все_yandex_отфильровано_обединено_нормировано_25_03_2024.csv,горнолыжный комплекс;зимние развлечения,1,51.509515,104.121343,1,Point,,Природный
"Иркутский район, Листвянское муниципальное образование, горнолыжный комплекс Прибайкальская, 1",Активный туризм,Активный,181,Прибайкальская,Иркутский,0,1,все_yandex_отфильровано_обединено_нормировано_25_03_2024.csv,горнолыжный комплекс,1,51.90425,104.819503,1,Point,,Другое
"169, микрорайон Гагарина, Байкальск",Активный туризм,Активный,182,Лыжный комплекс,Слюдянский,0,1,все_yandex_отфильровано_обединено_нормировано_25_03_2024.csv,горнолыжный комплекс;зимние развлечения,1,51.522378,104.150566,1,Point,,Другое
"Старо-Кузьмихинская ул., 37/3",Активный туризм,Активный,183,Высоцкий,Иркутск,0,1,все_yandex_отфильровано_обединено_нормировано_25_03_2024.csv,верёвочный парк,1,52.251029,104.280878,1,Point,,Природный
"Советская ул., 18, Киренск",Культурно-познавательный туризм,Культурно-познавательный,184,МКУК Историко-краеведческий музей,Киренский,1,1,все_yandex_отфильровано_обединено_нормировано_25_03_2024.csv,музей,1,57.775805,108.115089,1,Point,,Культурно-познавательный
"Иркутская область, Нижнеилимский район, территория Горнолыжная база Гора Западная",Активный туризм,Активный,185,Горнолыжная база Гора Западная,Нижнеилимский,0,1,все_yandex_отфильровано_обединено_нормировано_25_03_2024.csv,горнолыжный комплекс;зимние развлечения;спортивная база,1,56.58101,104.107075,1,Point,,Природный
"74, 2-й квартал, Железногорск-Илимский",Культурно-познавательный туризм,Культурно-познавательный,186,Краеведческий музей Нижнеилимского р-на,Нижнеилимский,1,1,все_yandex_отфильровано_обединено_нормировано_25_03_2024.csv,музей,1,56.581183,104.119103,1,Point,,Культурно-познавательный
"20, 8-й квартал, Железногорск-Илимский",Культурно-познавательный туризм,Культурно-познавательный,187,Железногорский историко-художественный музей им. академика М.К. Янгеля,Нижнеилимский,1,1,все_yandex_отфильровано_обединено_нормировано_25_03_2024.csv,музей,1,56.58473,104.112916,1,Point,,Культурно-познавательный
"Новая ул., 1, село Алыгджер",Культурно-познавательный туризм,Культурно-познавательный,188,Этно-культурный центр Тофаларии,Нижнеудинский,0,1,все_yandex_отфильровано_обединено_нормировано_25_03_2024.csv,музей,1,53.639814,98.214747,1,Point,,Культурно-познавательный
"ул. Ленина, 23, поселок Новонукутский",Культурно-познавательный туризм,Культурно-познавательный,189,Муниципальное казённое учреждение культуры Новонукутский краеведческий музей,Нукутский,1,1,все_yandex_отфильровано_обединено_нормировано_25_03_2024.csv,музей,1,53.699797,102.704769,1,Point,,Культурно-познавательный
"Слюдяная ул., 36, Слюдянка",Культурно-познавательный туризм,Культурно-познавательный,190,Самоцвет Байкала,Слюдянский,1,1,все_yandex_отфильровано_обединено_нормировано_25_03_2024.csv,музей,1,51.638257,103.698108,1,Point,,Культурно-познавательный
"ул. Ленина, 115, Тайшет",Культурно-познавательный туризм,Культурно-познавательный,191,Краеведческий музей города Тайшета,Тайшетский,1,1,все_yandex_отфильровано_обединено_нормировано_25_03_2024.csv,музей,1,55.935799,97.992203,1,Point,,Культурно-познавательный
"ул. Ленина, 6, посёлок Усть-Ордынский",Культурно-познавательный туризм,Культурно-познавательный,192,ОГБУК Национальный музей Усть-Ордынского Бурятского округа,Эхирит-Булагатский,1,1,все_yandex_отфильровано_обединено_нормировано_25_03_2024.csv,музей,1,52.802938,104.758289,1,Point,,Культурно-познавательный
"Иркутская область, Усть-Илимск",Активный туризм,Активный,193,Горнолыжная база Снежная,Усть-Илимский,0,1,все_yandex_отфильровано_обединено_нормировано_25_03_2024.csv,лыжная база;горнолыжный комплекс;зимние развлечения,1,57.974135,102.64752,1,Point,,Активный
"ул. Ленина, 16, посёлок Усть-Ордынский",Культурно-познавательный туризм,Культурно-познавательный,194,Киноконцертный зал Эрдэм,Эхирит-Булагатский,1,1,все_yandex_отфильровано_обединено_нормировано_25_03_2024.csv,кинотеатр;концертный зал,1,52.804611,104.754709,1,Point,,Развлекательный
"ул. Горького, 14, посёлок Усть-Уда",Культурно-познавательный туризм,Культурно-познавательный,195,Современник,Усть-Удинский,0,1,все_yandex_отфильровано_обединено_нормировано_25_03_2024.csv,кинотеатр,1,54.180947,103.021833,1,Point,,Развлекательный
"ул. Ленина, 46В, посёлок Бохан",Культурно-познавательный туризм,Культурно-познавательный,196,Кинотеатр Колос,Боханский,0,1,все_yandex_отфильровано_обединено_нормировано_25_03_2024.csv,кинотеатр,1,53.15296,103.779062,1,Point,,Развлекательный
"просп. Петра Красильникова, 1, Шелехов",Культурно-познавательный туризм,Культурно-познавательный,197,Юность,Шелеховский,1,1,все_yandex_отфильровано_обединено_нормировано_25_03_2024.csv,кинотеатр,1,52.20921,104.097858,1,Point,,Развлекательный
"ул. Ференца Патаки, 1, Черемхово",Культурно-познавательный туризм,Культурно-познавательный,198,Горняк,Черемховский,0,1,все_yandex_отфильровано_обединено_нормировано_25_03_2024.csv,кинотеатр,1,53.13729,103.087712,1,Point,,Развлекательный
"ул. Парижской Коммуны, 1А, Слюдянка",Культурно-познавательный туризм,Культурно-познавательный,199,Дом культуры железнодорожников,Слюдянский,1,1,все_yandex_отфильровано_обединено_нормировано_25_03_2024.csv,дом культуры;кинотеатр,1,51.656389,103.719911,1,Point,,Развлекательный
"109, рабочий посёлок Белореченский",Культурно-познавательный туризм,Культурно-познавательный,200,Дом культуры,Усольский,0,1,все_yandex_отфильровано_обединено_нормировано_25_03_2024.csv,дом культуры;кинотеатр,1,52.813499,103.527285,1,Point,,Развлекательный
"ул. Горького, 31, поселок Балаганск",Культурно-познавательный туризм,Культурно-познавательный,201,Кинозал Балаганский,Балаганский,0,1,все_yandex_отфильровано_обединено_нормировано_25_03_2024.csv,кинотеатр,1,54.005883,103.058092,1,Point,,Развлекательный
"Киевская ул., 27А, Свирск",Культурно-познавательный туризм,Культурно-познавательный,202,Седьмое Небо,Черемховский,0,1,все_yandex_отфильровано_обединено_нормировано_25_03_2024.csv,кинотеатр;дом культуры,1,53.094082,103.331569,1,Point,,Развлекательный
"ул. Декабрьских Событий, 18А, Черемхово",Культурно-познавательный туризм,Культурно-познавательный,203,Лемо,Черемховский,0,1,все_yandex_отфильровано_обединено_нормировано_25_03_2024.csv,кинотеатр,1,53.147126,103.072983,1,Point,,Развлекательный
"Иркутская область, Заларинский район, деревня Сорты",Культурно-познавательный туризм,Культурно-познавательный,204,МКУ Сортовский Дом досуга,Заларинский,0,1,все_yandex_отфильровано_обединено_нормировано_25_03_2024.csv,кинотеатр;организация мероприятий,1,53.474751,102.227351,1,Point,,Развлекательный
"Байкальская ул., 107",Культурно-познавательный туризм,Культурно-познавательный,205,Баргузин,Иркутск,1,1,все_yandex_отфильровано_обединено_нормировано_25_03_2024.csv,кинотеатр;развлекательный центр,1,52.266731,104.310079,1,Point,,Развлекательный
"Верхняя наб., 10",Культурно-познавательный туризм,Культурно-познавательный,206,Кино Молл,Иркутск,0,1,все_yandex_отфильровано_обединено_нормировано_25_03_2024.csv,кинотеатр,1,52.268216,104.288916,1,Point,,Развлекательный
"12, 192-й квартал, Ангарск",Культурно-познавательный туризм,Культурно-познавательный,207,Festival,Ангарский,0,1,все_yandex_отфильровано_обединено_нормировано_25_03_2024.csv,кинотеатр,1,52.502897,103.840488,1,Point,,Развлекательный
"1, микрорайон 12А, Ангарск",Культурно-познавательный туризм,Культурно-познавательный,208,Родина,Ангарский,1,1,все_yandex_отфильровано_обединено_нормировано_25_03_2024.csv,кинотеатр,1,52.511679,103.862558,1,Point,,Развлекательный
"1, 33-й микрорайон, Ангарск",Культурно-познавательный туризм,Культурно-познавательный,209,Nasa,Ангарский,0,1,все_yandex_отфильровано_обединено_нормировано_25_03_2024.csv,кинотеатр;кальян-бар,1,52.51336,103.848632,1,Point,,Развлекательный
"Трактовая ул., 34А, микрорайон Китой, Ангарск",Культурно-познавательный туризм,Культурно-познавательный,210,Центр Кино,Ангарский,0,1,все_yandex_отфильровано_обединено_нормировано_25_03_2024.csv,кинотеатр,1,52.594813,103.857715,1,Point,,Развлекательный
"Трактовая ул., 34А, микрорайон Китой, Ангарск",Культурно-познавательный туризм,Культурно-познавательный,211,Лесник,Ангарский,0,1,все_yandex_отфильровано_обединено_нормировано_25_03_2024.csv,дом культуры;кинотеатр,1,52.594864,103.857665,1,Point,,Природный
"ул. Толстого, 12, Черемхово",Культурно-познавательный туризм,Культурно-познавательный,212,Шахтёр,Черемховский,1,1,все_yandex_отфильровано_обединено_нормировано_25_03_2024.csv,кинотеатр,1,53.165848,103.079681,1,Point,,Развлекательный
"ул. Пеньковского, 4, рабочий посёлок Тайтурка",Культурно-познавательный туризм,Культурно-познавательный,213,Дом Ивановых,Усольский,0,1,все_yandex_отфильровано_обединено_нормировано_25_03_2024.csv,кинотеатр,1,52.870519,103.468853,1,Point,,Развлекательный
"ул. Грязнова, 1",Культурно-познавательный туризм,Культурно-познавательный,214,Don Otello,Иркутск,0,1,все_yandex_отфильровано_обединено_нормировано_25_03_2024.csv,кинотеатр,1,52.2819,104.285117,1,Point,,Развлекательный
"ул. 3 Июля, 25",Культурно-познавательный туризм,Культурно-познавательный,215,КиноКвартал,Иркутск,0,1,все_yandex_отфильровано_обединено_нормировано_25_03_2024.csv,кинотеатр,1,52.273173,104.291635,1,Point,,Развлекательный
"Советская ул., 58/1",Культурно-познавательный туризм,Культурно-познавательный,216,New Cinema,Иркутск,0,1,все_yandex_отфильровано_обединено_нормировано_25_03_2024.csv,кинотеатр,1,52.275299,104.305492,1,Point,,Развлекательный
"ул. Сергеева, 3/5",Культурно-познавательный туризм,Культурно-познавательный,217,Киномакс,Иркутск,0,1,все_yandex_отфильровано_обединено_нормировано_25_03_2024.csv,кинотеатр,1,52.265917,104.226085,1,Point,,Развлекательный
"ул. Карла Маркса, 24",Культурно-познавательный туризм,Культурно-познавательный,218,Художественный,Иркутск,1,1,все_yandex_отфильровано_обединено_нормировано_25_03_2024.csv,кинотеатр,1,52.280849,104.283764,1,Point,,Развлекательный
"Байкальская ул., 107",Культурно-познавательный туризм,Культурно-познавательный,219,Imax,Иркутск,0,1,все_yandex_отфильровано_обединено_нормировано_25_03_2024.csv,кинотеатр,1,52.266384,104.309975,1,Point,,Развлекательный
"ул. Николая Гаврилова, 1А",Культурно-познавательный туризм,Культурно-познавательный,220,Cinema horror hall,Иркутск,0,1,все_yandex_отфильровано_обединено_нормировано_25_03_2024.csv,кинотеатр,1,52.289859,104.270397,1,Point,,Развлекательный
"ул. Крупской, 19, Братск",Культурно-познавательный туризм,Культурно-познавательный,221,Чарли,Братск,1,1,все_yandex_отфильровано_обединено_нормировано_25_03_2024.csv,кинотеатр,1,56.1748,101.608128,1,Point,,Развлекательный
"ул. Гидростроителей, 54, поселок Падун, Братск",Культурно-познавательный туризм,Культурно-познавательный,222,Романтик,Братск,0,1,все_yandex_отфильровано_обединено_нормировано_25_03_2024.csv,кинотеатр,1,56.291319,101.726247,1,Point,,Развлекательный
"Южная ул., 20, жилой район Центральный, Братск",Культурно-познавательный туризм,Культурно-познавательный,223,РокоКлаб,Братск,0,1,все_yandex_отфильровано_обединено_нормировано_25_03_2024.csv,кинотеатр,1,56.146503,101.615853,1,Point,,Развлекательный
"Комсомольская ул., 37, Братск",Культурно-познавательный туризм,Культурно-познавательный,224,Кинотеатр 5D,Братск,0,1,все_yandex_отфильровано_обединено_нормировано_25_03_2024.csv,кинотеатр,1,56.158023,101.612578,1,Point,,Развлекательный
"ул. Мира, 21, село Тангуй",Культурно-познавательный туризм,Культурно-познавательный,225,Клуб,Братский,0,1,все_yandex_отфильровано_обединено_нормировано_25_03_2024.csv,кинотеатр,1,55.380825,101.031975,1,Point,,Развлекательный
"Индустриальный пр., 7, Братск",Культурно-познавательный туризм,Культурно-познавательный,226,Кинотеатр 5D,Братск,0,1,все_yandex_отфильровано_обединено_нормировано_25_03_2024.csv,кинотеатр,1,56.139131,101.623999,1,Point,,Развлекательный
"ул. Ленина, 6, Зима",Культурно-познавательный туризм,Культурно-познавательный,227,Кинотеатр Россия,Зима,0,1,все_yandex_отфильровано_обединено_нормировано_25_03_2024.csv,кинотеатр,1,53.920437,102.045504,1,Point,,Развлекательный
"Братский пер., 14, поселок Падун, Братск",Культурно-познавательный туризм,Культурно-познавательный,228,Утка,Братск,0,1,все_yandex_отфильровано_обединено_нормировано_25_03_2024.csv,кинотеатр,1,56.295364,101.707648,1,Point,,Развлекательный
"36, микрорайон Юбилейный, Саянск",Культурно-познавательный туризм,Культурно-познавательный,229,МБУК ДК Юность,Саянск,0,1,все_yandex_отфильровано_обединено_нормировано_25_03_2024.csv,дом культуры;кинотеатр,1,54.105972,102.161859,1,Point,,Развлекательный
"ул. Мира, 49, село Каразей",Культурно-познавательный туризм,Культурно-познавательный,230,Колос,Куйтунский,0,1,все_yandex_отфильровано_обединено_нормировано_25_03_2024.csv,кинотеатр,1,54.355768,101.112446,1,Point,,Развлекательный
"ул. Карла Маркса, 4, рабочий посёлок Куйтун",Культурно-познавательный туризм,Культурно-познавательный,231,Социально-культурный центр,Куйтунский,0,1,все_yandex_отфильровано_обединено_нормировано_25_03_2024.csv,кинотеатр,1,54.352457,101.520622,1,Point,,Развлекательный
"ул. Чапаева, 1А, поселок Харик",Культурно-познавательный туризм,Культурно-познавательный,232,Радуга,Куйтунский,0,1,все_yandex_отфильровано_обединено_нормировано_25_03_2024.csv,кинотеатр,1,54.237179,101.656825,1,Point,,Развлекательный
"Иркутский район, Карлукское муниципальное образование",Культурно-познавательный туризм,Культурно-познавательный,233,Контейнер 2,Иркутский,0,1,все_yandex_отфильровано_обединено_нормировано_25_03_2024.csv,кинотеатр;супермаркет;ресторан,1,52.407852,104.32284,1,Point,,Развлекательный
"ул. Ленина, 14, Нижнеудинск",Культурно-познавательный туризм,Культурно-познавательный,234,Кинотеатр Саяны,Нижнеудинский,1,1,все_yandex_отфильровано_обединено_нормировано_25_03_2024.csv,кинотеатр,1,54.906576,99.034337,1,Point,,Развлекательный
"Набережная ул., 6, село Карымск",Культурно-познавательный туризм,Культурно-познавательный,235,Дом культуры,Куйтунский,0,1,все_yandex_отфильровано_обединено_нормировано_25_03_2024.csv,дом культуры;кинотеатр,1,54.107144,101.851848,1,Point,,Развлекательный
"ул. Розы Люксембург, 273А/2",Культурно-познавательный туризм,Культурно-познавательный,236,Кино Здесь,Иркутск,0,1,все_yandex_отфильровано_обединено_нормировано_25_03_2024.csv,кинотеатр;организация мероприятий;игровые приставки,1,52.355245,104.158139,1,Point,,Развлекательный
"Советская ул., 22, Киренск",Культурно-познавательный туризм,Культурно-познавательный,237,Культурно-досуговый центр Современник,Киренский,1,1,все_yandex_отфильровано_обединено_нормировано_25_03_2024.csv,культурный центр;кинотеатр,1,57.774396,108.114549,1,Point,,Развлекательный
"Тбилисская ул., 5, посёлок Ния",Культурно-познавательный туризм,Культурно-познавательный,238,Кинотеатр,Усть-Кутский,0,1,все_yandex_отфильровано_обединено_нормировано_25_03_2024.csv,кинотеатр,1,56.553774,106.803302,1,Point,,Развлекательный
"Партизанская ул., 12, Киренск",Культурно-познавательный туризм,Культурно-познавательный,239,Мир,Киренский,1,1,все_yandex_отфильровано_обединено_нормировано_25_03_2024.csv,культурный центр;клуб досуга;кинотеатр,1,57.782675,108.108223,1,Point,,Развлекательный
"ул. Гагарина, 42, село Баяндай",Культурно-познавательный туризм,Культурно-познавательный,240,Баяндаевский,Баяндаевский,0,1,все_yandex_отфильровано_обединено_нормировано_25_03_2024.csv,кинотеатр,1,53.062048,105.504498,1,Point,,Развлекательный
"ул. Кирова, 80, Усть-Кут",Культурно-познавательный туризм,Культурно-познавательный,241,Кинотеатр Магистраль,Усть-Кутский,1,1,все_yandex_отфильровано_обединено_нормировано_25_03_2024.csv,кинотеатр,1,56.779949,105.741982,1,Point,,Развлекательный
"просп. Мира, 11, Усть-Илимск",Культурно-познавательный туризм,Культурно-познавательный,242,Супермакс яросама,Усть-Илимский,0,1,все_yandex_отфильровано_обединено_нормировано_25_03_2024.csv,кинотеатр,1,57.953951,102.738968,1,Point,,Развлекательный
"ул. Чайковского, 1, Усть-Илимск",Культурно-познавательный туризм,Культурно-познавательный,243,Дворец культуры имени И. И. Наймушина,Усть-Илимский,0,1,все_yandex_отфильровано_обединено_нормировано_25_03_2024.csv,дом культуры;кинотеатр;концертный зал,1,57.989423,102.662959,1,Point,,Развлекательный
"23, 8-й квартал, Железногорск-Илимский",Культурно-познавательный туризм,Культурно-познавательный,244,Нижнеилимская центральная межпоселенческая библиотека имени А. Н. Радищева,Нижнеилимский,1,1,все_yandex_отфильровано_обединено_нормировано_25_03_2024.csv,библиотека;фотостудия;планетарий,1,56.582883,104.113587,1,Point,,Другое
"Первомайская ул., 2, посёлок Хужир",Культурно-познавательный туризм,Культурно-познавательный,245,Хужирский краеведческий музей имени Н.М. Ревякина,Ольхонский,1,1,все_yandex_отфильровано_обединено_нормировано_25_03_2024.csv,музей,1,53.19456,107.338312,1,Point,,Культурно-познавательный
"ул. Гагарина, 115А, Тайшет",Культурно-познавательный туризм,Культурно-познавательный,246,Кинозал Гагарин,Тайшетский,0,1,все_yandex_отфильровано_обединено_нормировано_25_03_2024.csv,кинотеатр,1,55.937775,98.020876,1,Point,,Развлекательный
"ул. Ленина, 2/6, Свирск",Культурно-познавательный туризм,Культурно-познавательный,247,Кинотеатр,Черемховский,0,1,все_yandex_отфильровано_обединено_нормировано_25_03_2024.csv,кинотеатр,1,53.073328,103.347506,1,Point,,Развлекательный
"ул. Ленина, 28, поселок Новонукутский",Лечебно-оздоровительный туризм,Лечебно-оздоровительный,248,Нукутская Мацеста,Нукутский,0,1,все_yandex_отфильровано_обединено_нормировано_25_03_2024.csv,санаторий,1,53.699724,102.706561,1,Point,,Лечебно-оздоровительный
"Иркутская область, Заларинский район, посёлок городского типа Залари",Лечебно-оздоровительный туризм,Лечебно-оздоровительный,249,Орленок,Заларинский,0,1,все_yandex_отфильровано_обединено_нормировано_25_03_2024.csv,санаторий,1,53.553443,102.497055,1,Point,,Лечебно-оздоровительный
"ул. Ленина, 12, село Нагалык",Лечебно-оздоровительный туризм,Лечебно-оздоровительный,250,ОГБУЗ Санаторий Нагалык,Баяндаевский,0,1,все_yandex_отфильровано_обединено_нормировано_25_03_2024.csv,санаторий,1,53.105782,105.312089,1,Point,,Лечебно-оздоровительный
"ул. Чайковского, 51, Ангарск",Лечебно-оздоровительный туризм,Лечебно-оздоровительный,251,Родник,Ангарский,0,1,все_yandex_отфильровано_обединено_нормировано_25_03_2024.csv,санаторий,1,52.524819,103.87375,1,Point,,Природный
"Иркутская область, Ангарский городской округ",Лечебно-оздоровительный туризм,Лечебно-оздоровительный,252,Санаторий,Ангарский,0,1,все_yandex_отфильровано_обединено_нормировано_25_03_2024.csv,санаторий,1,52.446112,103.616791,1,Point,,Лечебно-оздоровительный
"ул. Горького, 7, Усолье-Сибирское",Лечебно-оздоровительный туризм,Лечебно-оздоровительный,253,Усолье,не обнаружено,0,1,все_yandex_отфильровано_обединено_нормировано_25_03_2024.csv,санаторий,1,52.759536,103.663786,1,Point,,Лечебно-оздоровительный
"47, 18-й квартал, Шелехов",Лечебно-оздоровительный туризм,Лечебно-оздоровительный,254,Реабилитационный центр Шелеховский,Шелеховский,0,1,все_yandex_отфильровано_обединено_нормировано_25_03_2024.csv,санаторий,1,52.216092,104.077389,1,Point,,Лечебно-оздоровительный
"Иркутская область, лес Утёс",Лечебно-оздоровительный туризм,Лечебно-оздоровительный,255,Утес,Усольский,0,1,все_yandex_отфильровано_обединено_нормировано_25_03_2024.csv,санаторий,1,52.843994,103.578612,1,Point,,Природный
"47, 18-й квартал, Шелехов",Лечебно-оздоровительный туризм,Лечебно-оздоровительный,256,Общество С Ограниченной Ответственностью Ирказ - Социальные Объекты,Шелеховский,0,1,все_yandex_отфильровано_обединено_нормировано_25_03_2024.csv,санаторий;санаторно-курортное объединение,1,52.216011,104.077374,1,Point,,Лечебно-оздоровительный
"2-я Железнодорожная ул., 4, корп. 1",Лечебно-оздоровительный туризм,Лечебно-оздоровительный,257,Ангара,Иркутск,0,1,все_yandex_отфильровано_обединено_нормировано_25_03_2024.csv,санаторно-курортное объединение;медицинская реабилитация,1,52.293439,104.243728,1,Point,,Лечебно-оздоровительный
"ул. Просвещения, 21А",Лечебно-оздоровительный туризм,Лечебно-оздоровительный,258,Санаторий Иркут,Иркутск,0,1,все_yandex_отфильровано_обединено_нормировано_25_03_2024.csv,санаторий,1,52.352551,104.228405,1,Point,,Лечебно-оздоровительный
"Деповский пер., 7",Лечебно-оздоровительный туризм,Лечебно-оздоровительный,259,Санаторий-профилакторий Иркутский,Иркутск,0,1,все_yandex_отфильровано_обединено_нормировано_25_03_2024.csv,санаторий,1,52.337856,104.202353,1,Point,,Лечебно-оздоровительный
"Украинская ул., 6",Лечебно-оздоровительный туризм,Лечебно-оздоровительный,260,Иркут,Иркутск,0,1,все_yandex_отфильровано_обединено_нормировано_25_03_2024.csv,санаторий,1,52.350165,104.223558,1,Point,,Лечебно-оздоровительный
"ул. Карла Либкнехта, 58",Лечебно-оздоровительный туризм,Лечебно-оздоровительный,261,"Электра, представительство",Иркутск,0,1,все_yandex_отфильровано_обединено_нормировано_25_03_2024.csv,санаторий,1,52.283568,104.301216,1,Point,,Лечебно-оздоровительный
"ул. Франк-Каменецкого, 18",Лечебно-оздоровительный туризм,Лечебно-оздоровительный,262,АлТур-Байкал,Иркутск,0,1,все_yandex_отфильровано_обединено_нормировано_25_03_2024.csv,санаторий,1,52.29047,104.296852,1,Point,,Лечебно-оздоровительный
"2-я Железнодорожная ул., 4, корп. 5",Лечебно-оздоровительный туризм,Лечебно-оздоровительный,263,"Курорт Ангара, отделение кардио-неврологической реабилитации",Иркутск,0,1,все_yandex_отфильровано_обединено_нормировано_25_03_2024.csv,санаторий;база;дом отдыха;медицинская реабилитация,1,52.288236,104.239392,1,Point,,Лечебно-оздоровительный
"Иркутский район, Байкальский тракт, 43-й километр",Лечебно-оздоровительный туризм,Лечебно-оздоровительный,264,Электра,Иркутский,0,1,все_yandex_отфильровано_обединено_нормировано_25_03_2024.csv,санаторий,1,52.030427,104.633244,1,Point,,Лечебно-оздоровительный
"Иркутская область, Иркутский район, поселок Листвянка",Лечебно-оздоровительный туризм,Лечебно-оздоровительный,265,Санаторий Байкал,Иркутский,0,1,все_yandex_отфильровано_обединено_нормировано_25_03_2024.csv,санаторий,1,51.871575,104.833462,1,Point,,Лечебно-оздоровительный
"ул. Слюдянских Красногвардейцев, 57, Слюдянка",Лечебно-оздоровительный туризм,Лечебно-оздоровительный,266,Жемчужина Сибири,Слюдянский,0,1,все_yandex_отфильровано_обединено_нормировано_25_03_2024.csv,санаторий,1,51.645626,103.70679,1,Point,,Лечебно-оздоровительный
"Студенческая ул., 8, жилой район Энергетик, Братск",Лечебно-оздоровительный туризм,Лечебно-оздоровительный,267,Братский государственный университет Санаторий-профилакторий,Братск,0,1,все_yandex_отфильровано_обединено_нормировано_25_03_2024.csv,санаторий,1,56.30825,101.762921,1,Point,,Лечебно-оздоровительный
"ул. Северный Артек, 10, Северный Артек, Братск",Лечебно-оздоровительный туризм,Лечебно-оздоровительный,268,Солнечный,Братск,0,1,все_yandex_отфильровано_обединено_нормировано_25_03_2024.csv,санаторий,1,56.172784,101.664796,1,Point,,Лечебно-оздоровительный
"Крылатый тупик, 1, стр. 1, Братск",Лечебно-оздоровительный туризм,Лечебно-оздоровительный,269,Юбилейный,Братск,0,1,все_yandex_отфильровано_обединено_нормировано_25_03_2024.csv,санаторий,1,56.16579,101.700518,1,Point,,Лечебно-оздоровительный
"ул. Гастелло, 10А, Вихоревка",Лечебно-оздоровительный туризм,Лечебно-оздоровительный,270,Санаторий-профилакторий Сосновые родники ДСС ВСЖД,Братский,0,1,все_yandex_отфильровано_обединено_нормировано_25_03_2024.csv,санаторий,1,56.118685,101.181516,1,Point,,Природный
"Иркутская область, городской округ Братск, Северный Артек, улица Северный Артек, 9",Лечебно-оздоровительный туризм,Лечебно-оздоровительный,271,Айболит,Братск,0,1,все_yandex_отфильровано_обединено_нормировано_25_03_2024.csv,санаторий,1,56.172161,101.669399,1,Point,,Лечебно-оздоровительный
"Западная автодорога, 4, Саянск",Лечебно-оздоровительный туризм,Лечебно-оздоровительный,272,Кедр,Саянск,0,1,все_yandex_отфильровано_обединено_нормировано_25_03_2024.csv,санаторий,1,54.108884,102.133203,1,Point,,Лечебно-оздоровительный
"ул. Братское Взморье, 3, Братск",Лечебно-оздоровительный туризм,Лечебно-оздоровительный,273,Братское взморье,Братск,0,1,все_yandex_отфильровано_обединено_нормировано_25_03_2024.csv,санаторий,1,56.195498,101.839155,1,Point,,Лечебно-оздоровительный
"Иркутский район, Ушаковское муниципальное образование, ДНТ Эвард",Лечебно-оздоровительный туризм,Лечебно-оздоровительный,274,Еловая Падь,Иркутский,0,1,все_yandex_отфильровано_обединено_нормировано_25_03_2024.csv,санаторий,1,52.18504,104.50805,1,Point,,Лечебно-оздоровительный
"Иркутский район, Байкальский тракт, 43-й километр",Лечебно-оздоровительный туризм,Лечебно-оздоровительный,275,Электра,Иркутский,0,1,все_yandex_отфильровано_обединено_нормировано_25_03_2024.csv,санаторий,1,52.254238,104.390404,1,Point,,Лечебно-оздоровительный
"Иркутский район, Большереченское муниципальное образование",Лечебно-оздоровительный туризм,Лечебно-оздоровительный,276,"Санаторий Электра, коттедж № 2",Иркутский,1,1,все_yandex_отфильровано_обединено_нормировано_25_03_2024.csv,санаторий,1,52.028685,104.635584,1,Point,,Лечебно-оздоровительный
"Иркутский район, Оёкское муниципальное образование, деревня Жердовка",Лечебно-оздоровительный туризм,Лечебно-оздоровительный,277,Туберкулезный санаторий Жердовка,Иркутский,0,1,все_yandex_отфильровано_обединено_нормировано_25_03_2024.csv,санаторий,1,52.650667,104.532339,1,Point,,Лечебно-оздоровительный
"ул. Октябрьской Революции, 1/4",Лечебно-оздоровительный туризм,Лечебно-оздоровительный,278,Кедр,Иркутск,0,1,все_yandex_отфильровано_обединено_нормировано_25_03_2024.csv,гостиничный оператор;санаторий,1,52.291273,104.301941,1,Point,,Лечебно-оздоровительный
"ул. Лермонтова, 90/1",Лечебно-оздоровительный туризм,Лечебно-оздоровительный,279,Пансионаты Ниловой Пустыни,Иркутск,0,1,все_yandex_отфильровано_обединено_нормировано_25_03_2024.csv,санаторно-курортное объединение;офис продаж,1,52.263012,104.25928,1,Point,,Лечебно-оздоровительный
"ул. Курорт, 1, Усть-Кут",Лечебно-оздоровительный туризм,Лечебно-оздоровительный,280,Санаторий Усть-Кут,Усть-Кутский,0,1,все_yandex_отфильровано_обединено_нормировано_25_03_2024.csv,санаторий,1,56.789231,105.617975,1,Point,,Лечебно-оздоровительный
"Иркутский район, Большереченское муниципальное образование",Лечебно-оздоровительный туризм,Лечебно-оздоровительный,281,"Санаторий Электра, корпус управления",Иркутский,2,0,все_yandex_отфильровано_обединено_нормировано_25_03_2024.csv,санаторий,0,52.029319,104.634922,1,Point,276.0,Лечебно-оздоровительный
"ул. Янгеля, 6 А, Железногорск-Илимский",Лечебно-оздоровительный туризм,Лечебно-оздоровительный,282,Первичная Профсоюзная Организация Санатория - Профилактория Дружба,Нижнеилимский,0,1,все_yandex_отфильровано_обединено_нормировано_25_03_2024.csv,санаторий,1,56.590226,104.115664,1,Point,,Лечебно-оздоровительный
"ул. Героев Труда, 57, Усть-Илимск",Лечебно-оздоровительный туризм,Лечебно-оздоровительный,283,Русь,Усть-Илимский,0,1,все_yandex_отфильровано_обединено_нормировано_25_03_2024.csv,санаторий,1,57.960405,102.718818,1,Point,,Лечебно-оздоровительный
"ул. Масловского, 26А, Нижнеудинск",Лечебно-оздоровительный туризм,Лечебно-оздоровительный,284,Санаторий-профилакторий Истоки,Нижнеудинский,0,1,все_yandex_отфильровано_обединено_нормировано_25_03_2024.csv,санаторий,1,54.894843,99.028501,1,Point,,Лечебно-оздоровительный
"Иркутский район, Большереченское муниципальное образование",Лечебно-оздоровительный туризм,Лечебно-оздоровительный,285,"Санаторий Электра, коттедж № 1",Иркутский,1,1,все_yandex_отфильровано_обединено_нормировано_25_03_2024.csv,санаторий,1,52.02858,104.635294,1,Point,,Лечебно-оздоровительный
"Иркутский район, Большереченское муниципальное образование",Лечебно-оздоровительный туризм,Лечебно-оздоровительный,286,"Санаторий Электра, коттедж № 3",Иркутский,2,0,все_yandex_отфильровано_обединено_нормировано_25_03_2024.csv,санаторий,0,52.028845,104.63601,1,Point,285.0,Лечебно-оздоровительный
"Луговая ул., 1, посёлок Невон",Активный туризм,Активный,287,Лыжная база,Усть-Илимский,0,1,все_yandex_отфильровано_обединено_нормировано_25_03_2024.csv,лыжная база;зимние развлечения,1,58.060251,102.716302,1,Point,,Другое
"ул. Речников, 1А, Усть-Кут",Лечебно-оздоровительный туризм,Лечебно-оздоровительный,288,Эйсейра,Усть-Кутский,0,1,все_yandex_отфильровано_обединено_нормировано_25_03_2024.csv,санаторий,1,56.793609,105.774854,1,Point,,Лечебно-оздоровительный
"Иркутская область, Шелеховский район, Большелугское муниципальное образование",Лечебно-оздоровительный туризм,Лечебно-оздоровительный,289,Олхинский,Шелеховский,0,1,все_yandex_отфильровано_обединено_нормировано_25_03_2024.csv,детский лагерь отдыха;оздоровительный центр,1,52.114526,104.094895,1,Point,,Лечебно-оздоровительный
"Иркутская область, Шелеховский район, Большелугское муниципальное образование, посёлок Огоньки",Лечебно-оздоровительный туризм,Лечебно-оздоровительный,290,Детский оздоровительный лагерь Огоньки,Шелеховский,0,1,все_yandex_отфильровано_обединено_нормировано_25_03_2024.csv,детский лагерь отдыха;оздоровительный центр,1,52.010416,104.017515,1,Point,,Лечебно-оздоровительный
"ул. Гидростроителей, 53, жилой район Падун, Братск",Лечебно-оздоровительный туризм,Лечебно-оздоровительный,291,Центр доктора Бубновского,Братск,0,1,все_yandex_отфильровано_обединено_нормировано_25_03_2024.csv,оздоровительный центр,1,56.292266,101.727291,1,Point,,Лечебно-оздоровительный
"ул. Берёзовая Роща, 30",Лечебно-оздоровительный туризм,Лечебно-оздоровительный,292,Центр доктора Бубновского,Иркутск,0,1,все_yandex_отфильровано_обединено_нормировано_25_03_2024.csv,медицинская реабилитация;медцентр;клиника;оздоровительный центр,1,52.264088,104.225677,1,Point,,Лечебно-оздоровительный
"Советская ул., 35, село Аларь",Культурно-познавательный туризм,Культурно-познавательный,293,Музей Степная дума имени В.Б. Мохосоева,Аларский,1,1,все_yandex_отфильровано_обединено_нормировано_25_03_2024.csv,музей,1,53.069656,102.545505,1,Point,,Культурно-познавательный
"13, 74-й квартал, Ангарск",Культурно-познавательный туризм,Культурно-познавательный,294,Муниципальное бюджетное учреждение культуры Ангарского городского округа Городской музей,Ангарский,1,1,все_yandex_отфильровано_обединено_нормировано_25_03_2024.csv,музей;культурный центр,1,52.542368,103.889617,1,Point,,Культурно-познавательный
"Ангарская ул., 6, Зима",Культурно-познавательный туризм,Культурно-познавательный,295,Краеведческий музей,Зима,1,1,все_yandex_отфильровано_обединено_нормировано_25_03_2024.csv,музей,1,53.934067,102.052122,1,Point,,Культурно-познавательный
"15А, микрорайон 12А, Ангарск",Культурно-познавательный туризм,Культурно-познавательный,296,Музей Победы,Ангарский,1,1,все_yandex_отфильровано_обединено_нормировано_25_03_2024.csv,музей,1,52.512657,103.862031,1,Point,,Культурно-познавательный
"13, 74-й квартал, Ангарск",Культурно-познавательный туризм,Культурно-познавательный,297,Музей часов,Ангарский,1,1,все_yandex_отфильровано_обединено_нормировано_25_03_2024.csv,музей,1,52.542262,103.889763,1,Point,,Культурно-познавательный
"15А, микрорайон 12А, Ангарск",Культурно-познавательный туризм,Культурно-познавательный,298,Музей Победы,Ангарский,2,0,все_yandex_отфильровано_обединено_нормировано_25_03_2024.csv,музей;дополнительное образование,0,52.51263,103.862075,1,Point,296.0,Культурно-познавательный
"4, 73-й квартал, Ангарск",Культурно-познавательный туризм,Культурно-познавательный,299,Музей минералов,Ангарский,1,1,все_yandex_отфильровано_обединено_нормировано_25_03_2024.csv,музей,1,52.542245,103.884846,1,Point,,Культурно-познавательный
"46, 18-й квартал, Шелехов",Культурно-познавательный туризм,Культурно-познавательный,300,Городской Музей Г. И. Шелехова,Шелеховский,0,1,все_yandex_отфильровано_обединено_нормировано_25_03_2024.csv,музей,1,52.212797,104.087594,1,Point,,Природный
"Комсомольский просп., 79, Усолье-Сибирское",Культурно-познавательный туризм,Культурно-познавательный,301,Усольский историко-краеведческий музей,не обнаружено,1,1,все_yandex_отфильровано_обединено_нормировано_25_03_2024.csv,музей,1,52.749189,103.650598,1,Point,,Культурно-познавательный
"Советская ул., 10, рабочий посёлок Михайловка",Культурно-познавательный туризм,Культурно-познавательный,302,Историко-краеведческий музей Черемховского района,Черемховский,1,1,все_yandex_отфильровано_обединено_нормировано_25_03_2024.csv,музей,1,52.95592,103.290927,1,Point,,Культурно-познавательный
"Сосновый пер., 18, посёлок Большой Луг",Культурно-познавательный туризм,Культурно-познавательный,303,Структурное подразделение Большелугский Эко-Центр ГАУ ДО Ио центр развития дополнительного образования детей,Шелеховский,0,1,все_yandex_отфильровано_обединено_нормировано_25_03_2024.csv,музей,1,52.080749,104.082179,1,Point,,Культурно-познавательный
"Ленинградский просп., 6, Ангарск",Культурно-познавательный туризм,Культурно-познавательный,304,Музей трудовой славы Анхк,Ангарский,0,1,все_yandex_отфильровано_обединено_нормировано_25_03_2024.csv,музей,1,52.508975,103.84646,1,Point,,Культурно-познавательный
"1, корп. А, 29-й микрорайон, Ангарск",Культурно-познавательный туризм,Культурно-познавательный,305,Музей трудовой славы АНХК,Ангарский,0,1,все_yandex_отфильровано_обединено_нормировано_25_03_2024.csv,музей,1,52.532274,103.862655,1,Point,,Культурно-познавательный
"1, корп. А, 29-й микрорайон, Ангарск",Культурно-познавательный туризм,Культурно-познавательный,306,Межотраслевой региональный учебный центр,Ангарский,0,1,все_yandex_отфильровано_обединено_нормировано_25_03_2024.csv,музей,1,52.532293,103.862529,1,Point,,Культурно-познавательный
"Сибирская ул., 8, Ангарск",Культурно-познавательный туризм,Культурно-познавательный,307,Детский клуб Мечта,Ангарский,0,1,все_yandex_отфильровано_обединено_нормировано_25_03_2024.csv,клуб для детей и подростков;дополнительное образование;музей,1,52.552858,103.877262,1,Point,,Культурно-познавательный
"Иркутск, улица Челнокова",Культурно-познавательный туризм,Культурно-познавательный,308,Музей истории вагонного депо,Иркутск,0,1,все_yandex_отфильровано_обединено_нормировано_25_03_2024.csv,музей,1,52.285835,104.258184,1,Point,,Культурно-познавательный
"ул. Лермонтова, 289",Культурно-познавательный туризм,Культурно-познавательный,309,Экспериментарий,Иркутск,1,1,все_yandex_отфильровано_обединено_нормировано_25_03_2024.csv,музей;планетарий,1,52.24507,104.271487,1,Point,,Культурно-познавательный
"ул. Чайковского, 5",Культурно-познавательный туризм,Культурно-познавательный,310,"Музей истории г. Иркутска им. Сибирякова, филиал Солдаты Отечества",Иркутск,1,1,все_yandex_отфильровано_обединено_нормировано_25_03_2024.csv,музей,1,52.281247,104.236922,1,Point,,Природный
"ул. Лермонтова, 83, корп. Е",Культурно-познавательный туризм,Культурно-познавательный,311,"ИРНИТУ, Государственный минералогический музей имени А.В. Сидорова",Иркутск,1,1,все_yandex_отфильровано_обединено_нормировано_25_03_2024.csv,музей,1,52.261194,104.262728,1,Point,,Культурно-познавательный
"ул. Академика Образцова, 30",Культурно-познавательный туризм,Культурно-познавательный,312,Музей локомотивного депо,Иркутск,0,1,все_yandex_отфильровано_обединено_нормировано_25_03_2024.csv,музей,1,52.339675,104.206623,1,Point,,Культурно-познавательный
"ул. Сергеева, 3",Культурно-познавательный туризм,Культурно-познавательный,313,Перевернутый дом,Иркутск,0,1,все_yandex_отфильровано_обединено_нормировано_25_03_2024.csv,музей,1,52.264594,104.222926,1,Point,,Культурно-познавательный
"ул. Лермонтова, 83, корп. И",Культурно-познавательный туризм,Культурно-познавательный,314,Музей истории НИИрТУ,Иркутск,2,0,все_yandex_отфильровано_обединено_нормировано_25_03_2024.csv,музей,0,52.262042,104.26233,1,Point,311.0,Культурно-познавательный
"Трудовая ул., 6, село Смоленщина",Культурно-познавательный туризм,Культурно-познавательный,315,Торгово-выставочный комплекс,Иркутский,0,1,все_yandex_отфильровано_обединено_нормировано_25_03_2024.csv,музей;магазин подарков и сувениров;изделия из камня,1,52.256623,104.128519,1,Point,,Культурно-познавательный
"Олхинская ул., 2, Шелехов",Культурно-познавательный туризм,Культурно-познавательный,316,Наследие,Шелеховский,0,1,все_yandex_отфильровано_обединено_нормировано_25_03_2024.csv,музей;культурный центр,1,52.216204,104.105726,1,Point,,Культурно-познавательный
"ул. Стояновича, 81, Бодайбо",Культурно-познавательный туризм,Культурно-познавательный,317,Бодайбинский городской краеведческий музей имени В.Ф. Верещагина,Бодайбинский,1,1,все_yandex_отфильровано_обединено_нормировано_25_03_2024.csv,музей,1,57.845616,114.199065,1,Point,,Культурно-познавательный
"ул. Ленина, 5",Культурно-познавательный туризм,Культурно-познавательный,318,ГБУК Иркутский областной художественный музей имени В. П. Сукачёва,Иркутск,1,1,все_yandex_отфильровано_обединено_нормировано_25_03_2024.csv,музей;художественная галерея,1,52.283958,104.281599,1,Point,,Культурно-познавательный
"ул. Степана Разина, 11",Культурно-познавательный туризм,Культурно-познавательный,319,Музей игрушек Бичайханова,Иркутск,0,1,все_yandex_отфильровано_обединено_нормировано_25_03_2024.csv,музей,1,52.285682,104.273932,1,Point,,Культурно-познавательный
"ул. Дзержинского, 64",Культурно-познавательный туризм,Культурно-познавательный,320,Дом-музей Трубецких,Иркутск,1,1,все_yandex_отфильровано_обединено_нормировано_25_03_2024.csv,музей,1,52.288895,104.301797,1,Point,,Культурно-познавательный
"ул. Софьи Перовской, 10",Культурно-познавательный туризм,Культурно-познавательный,321,Музей ретро-автомобилей Гараж,Иркутск,1,1,все_yandex_отфильровано_обединено_нормировано_25_03_2024.csv,музей,1,52.27919,104.297191,1,Point,,Культурно-познавательный
"ул. Карла Маркса, 47",Культурно-познавательный туризм,Культурно-познавательный,322,Музей Боевой Славы,Иркутск,1,1,все_yandex_отфильровано_обединено_нормировано_25_03_2024.csv,музей,1,52.28999,104.294217,1,Point,,Культурно-познавательный
"ул. Сухэ-Батора, 5",Культурно-познавательный туризм,Культурно-познавательный,323,Музей зоологии позвоночных,Иркутск,1,1,все_yandex_отфильровано_обединено_нормировано_25_03_2024.csv,музей,1,52.288581,104.282537,1,Point,,Культурно-познавательный
"ул. Свердлова, 20",Культурно-познавательный туризм,Культурно-познавательный,324,Музей В. Г. Распутина,Иркутск,1,1,все_yandex_отфильровано_обединено_нормировано_25_03_2024.csv,музей,1,52.284696,104.283186,1,Point,,Природный
"ул. Декабрьских Событий, 77А",Культурно-познавательный туризм,Культурно-познавательный,325,"Музей истории города Иркутска имени А. М. Сибирякова, филиал Музей городского быта",Иркутск,1,1,все_yandex_отфильровано_обединено_нормировано_25_03_2024.csv,музей,1,52.286013,104.304103,1,Point,,Культурно-познавательный
"ул. Тимирязева, 33",Культурно-познавательный туризм,Культурно-познавательный,326,Музей пожарной охраны города Иркутска и Иркутской области,Иркутск,1,1,все_yandex_отфильровано_обединено_нормировано_25_03_2024.csv,музей,1,52.283938,104.298292,1,Point,,Культурно-познавательный
"Подгорная ул., 27",Культурно-познавательный туризм,Культурно-познавательный,327,Музей ретротехники,Иркутск,1,1,все_yandex_отфильровано_обединено_нормировано_25_03_2024.csv,музей,1,52.27859,104.29864,1,Point,,Культурно-познавательный
"ул. Франк-Каменецкого, 16Б",Культурно-познавательный туризм,Культурно-познавательный,328,МБУК Музей истории города Иркутска имени А. М. Сибирякова отдел истории,Иркутск,1,1,все_yandex_отфильровано_обединено_нормировано_25_03_2024.csv,музей,1,52.290372,104.296212,1,Point,,Культурно-познавательный
"ул. Сухэ-Батора, 5",Культурно-познавательный туризм,Культурно-познавательный,329,Музей имени М. М. Кожова при Игу,Иркутск,1,1,все_yandex_отфильровано_обединено_нормировано_25_03_2024.csv,музей,1,52.288764,104.28242,1,Point,,Культурно-познавательный
"ул. Седова, 42/1",Культурно-познавательный туризм,Культурно-познавательный,330,Музей самоваров,Иркутск,0,1,все_yandex_отфильровано_обединено_нормировано_25_03_2024.csv,музей,1,52.27316,104.29251,1,Point,,Культурно-познавательный
"ул. Ленина, 48",Культурно-познавательный туризм,Культурно-познавательный,331,Музей спортивной славы Приангарья,Иркутск,0,1,все_yandex_отфильровано_обединено_нормировано_25_03_2024.csv,музей,1,52.277238,104.28346,1,Point,,Культурно-познавательный
"ул. Карла Маркса, 11",Культурно-познавательный туризм,Культурно-познавательный,332,Отдел книжного фонда,Иркутск,1,1,все_yandex_отфильровано_обединено_нормировано_25_03_2024.csv,музей,1,52.281537,104.284127,1,Point,,Культурно-познавательный
"ул. Карла Либкнехта, 2",Культурно-познавательный туризм,Культурно-познавательный,333,Афат,Иркутск,0,1,все_yandex_отфильровано_обединено_нормировано_25_03_2024.csv,музей;магия и эзотерика;религиозные товары,1,52.285737,104.287254,1,Point,,Культурно-познавательный
"ул. Сухэ-Батора, 12",Культурно-познавательный туризм,Культурно-познавательный,334,Арт-Хаус,Иркутск,0,1,все_yandex_отфильровано_обединено_нормировано_25_03_2024.csv,музей,1,52.284428,104.28404,1,Point,,Культурно-познавательный
"ул. Калинина, 8, село Олонки",Культурно-познавательный туризм,Культурно-познавательный,335,Муниципальное бюджетное учреждение культуры Музей имени декабриста В. Ф. Раевского Муниципального образования Олонки,Боханский,1,1,все_yandex_отфильровано_обединено_нормировано_25_03_2024.csv,музей,1,52.895217,103.699118,1,Point,,Культурно-познавательный
"ул. Хасановских Боёв, 1, Свирск",Культурно-познавательный туризм,Культурно-познавательный,336,Музей истории города,Черемховский,1,1,все_yandex_отфильровано_обединено_нормировано_25_03_2024.csv,музей,1,53.075992,103.338605,1,Point,,Культурно-познавательный
"ул. Ленина, 37, Свирск",Культурно-познавательный туризм,Культурно-познавательный,337,Музей мышьяка,Черемховский,1,1,все_yandex_отфильровано_обединено_нормировано_25_03_2024.csv,музей,1,53.077464,103.345552,1,Point,,Культурно-познавательный
"ул. Ленина, 25, Свирск",Культурно-познавательный туризм,Культурно-познавательный,338,Музей военной техники под открытым небом,Черемховский,0,1,все_yandex_отфильровано_обединено_нормировано_25_03_2024.csv,музей,1,53.075222,103.345745,1,Point,,Культурно-познавательный
"ул. Гидростроителей, 54, поселок Падун, Братск",Культурно-познавательный туризм,Культурно-познавательный,339,Музей историии Братскгэсстроя и города Братска,Братск,1,1,все_yandex_отфильровано_обединено_нормировано_25_03_2024.csv,музей,1,56.291296,101.726238,1,Point,,Культурно-познавательный
"Иркутская область, городской округ Братск, территория Ангарская деревня, 3",Культурно-познавательный туризм,Культурно-познавательный,340,Ангарская деревня,Братск,0,1,все_yandex_отфильровано_обединено_нормировано_25_03_2024.csv,музей,1,56.221732,101.681235,1,Point,,Природный
"Октябрьская ул., 7, Вихоревка",Культурно-познавательный туризм,Культурно-познавательный,341,Музей,Братский,0,1,все_yandex_отфильровано_обединено_нормировано_25_03_2024.csv,музей,1,56.1218,101.164459,1,Point,,Культурно-познавательный
"Комсомольская ул., 77, Братск",Культурно-познавательный туризм,Культурно-познавательный,342,Музей освоения Ангары,Братск,2,0,все_yandex_отфильровано_обединено_нормировано_25_03_2024.csv,музей,0,56.167294,101.618994,1,Point,110.0,Культурно-познавательный
"Центральная ул., 9А, жилой район Осиновка, Братск",Культурно-познавательный туризм,Культурно-познавательный,343,Музей им. В.И. Мокровицкого,Братск,0,1,все_yandex_отфильровано_обединено_нормировано_25_03_2024.csv,музей,1,56.276209,101.896451,1,Point,,Культурно-познавательный
"Комсомольская ул., 38, Братск",Культурно-познавательный туризм,Культурно-познавательный,344,Музей освоения Ангары,Братск,1,1,все_yandex_отфильровано_обединено_нормировано_25_03_2024.csv,музей,1,56.159824,101.616209,1,Point,,Культурно-познавательный
"пр. Стройиндустрии, 44, Братск",Культурно-познавательный туризм,Культурно-познавательный,345,Братский музей света,Братск,0,1,все_yandex_отфильровано_обединено_нормировано_25_03_2024.csv,музей,1,56.305507,101.73689,1,Point,,Культурно-познавательный
"ул. Рябикова, 35, Братск",Культурно-познавательный туризм,Культурно-познавательный,346,"Братский городской объединенный музей истории освоения Ангары, отдел Фондов",Братск,0,1,все_yandex_отфильровано_обединено_нормировано_25_03_2024.csv,музей,1,56.173101,101.607211,1,Point,,Культурно-познавательный
"Парковая ул., 3, Братск",Культурно-познавательный туризм,Культурно-познавательный,347,Музей истории политической ссылки,Братск,1,1,все_yandex_отфильровано_обединено_нормировано_25_03_2024.csv,музей,1,56.157428,101.605316,1,Point,,Культурно-познавательный
"Коммунальная ул., 21, Братск",Культурно-познавательный туризм,Культурно-познавательный,348,Музей трудовой славы ГЭМ,Братск,0,1,все_yandex_отфильровано_обединено_нормировано_25_03_2024.csv,музей,1,56.14973,101.605116,1,Point,,Культурно-познавательный
"ул. Красного Октября, 36, рабочий посёлок Куйтун",Культурно-познавательный туризм,Культурно-познавательный,349,Краеведческий музей,Куйтунский,0,1,все_yandex_отфильровано_обединено_нормировано_25_03_2024.csv,музей,1,54.353639,101.522082,1,Point,,Культурно-познавательный
"24, микрорайон Строителей, Саянск",Культурно-познавательный туризм,Культурно-познавательный,350,Музей истории города,Саянск,1,1,все_yandex_отфильровано_обединено_нормировано_25_03_2024.csv,музей,1,54.11417,102.173858,1,Point,,Культурно-познавательный
"Иркутская область, Куйтунский район, посёлок городского типа Куйтун",Культурно-познавательный туризм,Культурно-познавательный,351,Куйтунский Районный Краеведческий Музей,Куйтунский,0,1,все_yandex_отфильровано_обединено_нормировано_25_03_2024.csv,музей,1,54.323881,101.508208,1,Point,,Культурно-познавательный
"Советская ул., 15, Тулун",Культурно-познавательный туризм,Культурно-познавательный,352,МБУК г. Тулуна Краеведческий музей имени П.Ф. Гущина,Тулун,2,0,все_yandex_отфильровано_обединено_нормировано_25_03_2024.csv,музей,0,54.557187,100.573973,1,Point,114.0,Природный
"24, микрорайон Строителей, Саянск",Культурно-познавательный туризм,Культурно-познавательный,353,Музейно-выставочный комплекс Города Саянска,Саянск,2,0,все_yandex_отфильровано_обединено_нормировано_25_03_2024.csv,музей,0,54.114315,102.173931,1,Point,350.0,Культурно-познавательный
"ул. Гоголя, 41, Тулун",Культурно-познавательный туризм,Культурно-познавательный,354,Река и Я,Тулун,0,1,все_yandex_отфильровано_обединено_нормировано_25_03_2024.csv,музей,1,54.577421,100.567982,1,Point,,Природный
"11, Солнечный микрорайон, Саянск",Культурно-познавательный туризм,Культурно-познавательный,355,Музей АО Саянскхимпласт,Саянск,0,1,все_yandex_отфильровано_обединено_нормировано_25_03_2024.csv,музей,1,54.110967,102.153338,1,Point,,Культурно-познавательный
"Иркутский район, Большереченское муниципальное образование, посёлок Тальцы",Культурно-познавательный туризм,Культурно-познавательный,356,Архитектурно-этнографический музей Тальцы,Иркутский,0,1,все_yandex_отфильровано_обединено_нормировано_25_03_2024.csv,музей,1,51.998172,104.66891,1,Point,,Культурно-познавательный
"ул. Ленина, 76, п. г. т. Залари",Культурно-познавательный туризм,Культурно-познавательный,357,Заларинский историко-краеведческий музей,Заларинский,1,1,все_yandex_отфильровано_обединено_нормировано_25_03_2024.csv,музей,1,53.55341,102.498433,1,Point,,Культурно-познавательный
"ул. Карла Маркса, 21, Зима",Культурно-познавательный туризм,Культурно-познавательный,358,Дом-музей поэзии имени Евгения Евтушенко,Зима,0,1,все_yandex_отфильровано_обединено_нормировано_25_03_2024.csv,музей;экскурсии,1,53.916673,102.046017,1,Point,,Культурно-познавательный
"Иркутский район, Александровский тракт, 5-й километр, 1",Культурно-познавательный туризм,Культурно-познавательный,359,Музей мусора,Иркутский,1,1,все_yandex_отфильровано_обединено_нормировано_25_03_2024.csv,музей,1,52.382381,104.303091,1,Point,,Культурно-познавательный
"ул. Седова, 30",Культурно-познавательный туризм,Культурно-познавательный,360,Иркутский планетарий,Иркутск,1,1,все_yandex_отфильровано_обединено_нормировано_25_03_2024.csv,планетарий;музей,1,52.273867,104.289779,1,Point,,Культурно-познавательный
"ул. Карла Маркса, 11",Культурно-познавательный туризм,Культурно-познавательный,361,"Иркутский областной краеведческий музей имени Н.Н. Муравьева-Амурского, Отдел природы",Иркутск,2,0,все_yandex_отфильровано_обединено_нормировано_25_03_2024.csv,музей,0,52.281413,104.283974,1,Point,117.0,Природный
"Иркутский район, посёлок Молодёжный",Культурно-познавательный туризм,Культурно-познавательный,362,Музей истории Федерального государственного бюджетного образовательного учреждения высшего образования Иркутский государственный аграрный университет имени А. А. Ежевского,Иркутский,0,1,все_yandex_отфильровано_обединено_нормировано_25_03_2024.csv,музей,1,52.232653,104.417761,1,Point,,Культурно-познавательный
"ул. Баррикад, 63",Культурно-познавательный туризм,Культурно-познавательный,363,Музей истории Иркутского тюремного замка имени А. В. Колчака,Иркутск,0,1,все_yandex_отфильровано_обединено_нормировано_25_03_2024.csv,музей,1,52.293872,104.312117,1,Point,,Культурно-познавательный
"ул. Декабрьских Событий, 77А",Культурно-познавательный туризм,Культурно-познавательный,364,Музей чая,Иркутск,2,0,все_yandex_отфильровано_обединено_нормировано_25_03_2024.csv,музей,0,52.285955,104.30424,1,Point,325.0,Культурно-познавательный
"ул. 3 Июля, 21Б",Культурно-познавательный туризм,Культурно-познавательный,365,Музей Окно в Азию,Иркутск,1,1,все_yandex_отфильровано_обединено_нормировано_25_03_2024.csv,музей,1,52.273688,104.28902,1,Point,,Культурно-познавательный
"ул. Тимирязева, 59",Культурно-познавательный туризм,Культурно-познавательный,366,Музей охотоведения,Иркутск,0,1,все_yandex_отфильровано_обединено_нормировано_25_03_2024.csv,музей,1,52.287765,104.302534,1,Point,,Культурно-познавательный
"ул. Кирова, 91/3, село Оек",Культурно-познавательный туризм,Культурно-познавательный,367,Музей истории села Оёк,Иркутский,1,1,все_yandex_отфильровано_обединено_нормировано_25_03_2024.csv,музей,1,52.585098,104.454002,1,Point,,Культурно-познавательный
"ул. Седова, 30",Культурно-познавательный туризм,Культурно-познавательный,368,Музей Ноосфера имени Михаила Щадова,Иркутск,1,1,все_yandex_отфильровано_обединено_нормировано_25_03_2024.csv,музей,1,52.273802,104.289964,1,Point,,Культурно-познавательный
"ул. Марата, 11",Культурно-познавательный туризм,Культурно-познавательный,369,ЦСИ Огонь,Иркутск,0,1,все_yandex_отфильровано_обединено_нормировано_25_03_2024.csv,музей,1,52.28858,104.27589,1,Point,,Культурно-познавательный
"Иркутская область, Слюдянский район, посёлок Утулик",Культурно-познавательный туризм,Культурно-познавательный,370,Дом краеведа,Слюдянский,1,1,все_yandex_отфильровано_обединено_нормировано_25_03_2024.csv,музей,1,51.54786,104.068602,1,Point,,Культурно-познавательный
"ул. Ленина, 3",Культурно-познавательный туризм,Культурно-познавательный,371,"Игу, геологический музей",Иркутск,1,1,все_yandex_отфильровано_обединено_нормировано_25_03_2024.csv,музей,1,52.284934,104.280909,1,Point,,Культурно-познавательный
"ул. Литвинова, 15",Культурно-познавательный туризм,Культурно-познавательный,372,Музей ГУ МВД России по Иркутской области,Иркутск,0,1,все_yandex_отфильровано_обединено_нормировано_25_03_2024.csv,музей,1,52.282482,104.293107,1,Point,,Культурно-познавательный
"Берёзовая ул., 14, посёлок Утулик",Культурно-познавательный туризм,Культурно-познавательный,373,Дом краеведа,Слюдянский,2,0,все_yandex_отфильровано_обединено_нормировано_25_03_2024.csv,музей,0,51.547917,104.068258,1,Point,370.0,Культурно-познавательный
"пер. Волконского, 10",Культурно-познавательный туризм,Культурно-познавательный,374,Дом-музей Волконских,Иркутск,1,1,все_yandex_отфильровано_обединено_нормировано_25_03_2024.csv,музей,1,52.287651,104.304887,1,Point,,Культурно-познавательный
"Подгорная ул., 27",Культурно-познавательный туризм,Культурно-познавательный,375,Музей ретро мототехники,Иркутск,2,0,все_yandex_отфильровано_обединено_нормировано_25_03_2024.csv,музей,0,52.278535,104.298765,1,Point,327.0,Культурно-познавательный
"ул. Франк-Каменецкого, 16А",Культурно-познавательный туризм,Культурно-познавательный,376,МБУК Музей истории города Иркутска имени А. М. Сибирякова,Иркутск,2,0,все_yandex_отфильровано_обединено_нормировано_25_03_2024.csv,музей,0,52.290715,104.296381,1,Point,328.0,Культурно-познавательный
"ул. Декабрьских Событий, 112",Культурно-познавательный туризм,Культурно-познавательный,377,Музей-усадьба В. П. Сукачёва,Иркутск,1,1,все_yandex_отфильровано_обединено_нормировано_25_03_2024.csv,музей,1,52.279003,104.316394,1,Point,,Культурно-познавательный
"ул. Карла Маркса, 13",Культурно-познавательный туризм,Культурно-познавательный,378,"Иркутский областной краеведческий музей им. Н.Н. Муравьева-Амурского, Музейная студия",Иркутск,1,1,все_yandex_отфильровано_обединено_нормировано_25_03_2024.csv,музей,1,52.281685,104.284299,1,Point,,Культурно-познавательный
"ул. Свердлова, 16",Культурно-познавательный туризм,Культурно-познавательный,379,Иркутский областной художественный музей имени В.П. Сукачёва,Иркутск,2,0,все_yandex_отфильровано_обединено_нормировано_25_03_2024.csv,музей,0,52.284412,104.282574,1,Point,318.0,Культурно-познавательный
"ул. Кожова, 27",Культурно-познавательный туризм,Культурно-познавательный,380,Музей истории ВСЖД Всцнтиб - Структурного подразделения ВСЖД - Филиала РЖД,Иркутск,0,1,все_yandex_отфильровано_обединено_нормировано_25_03_2024.csv,музей,1,52.272701,104.292538,1,Point,,Культурно-познавательный
"ул. Седова, 30",Культурно-познавательный туризм,Культурно-познавательный,381,Фантаст,Иркутск,0,1,все_yandex_отфильровано_обединено_нормировано_25_03_2024.csv,музей,1,52.273913,104.289859,1,Point,,Культурно-познавательный
"ул. Фурье, 3",Культурно-познавательный туризм,Культурно-познавательный,382,Афат,Иркутск,0,1,все_yandex_отфильровано_обединено_нормировано_25_03_2024.csv,магия и эзотерика;магазин подарков и сувениров;музей,1,52.284883,104.291808,1,Point,,Культурно-познавательный
"ул. Бабушкина, 20, Слюдянка",Культурно-познавательный туризм,Культурно-познавательный,383,Историко-минералогический музей,Слюдянский,1,1,все_yandex_отфильровано_обединено_нормировано_25_03_2024.csv,музей,1,51.653933,103.726139,1,Point,,Культурно-познавательный
"Иркутский район, Большереченское муниципальное образование, поселок Тальцы",Культурно-познавательный туризм,Культурно-познавательный,384,Илимский острог в Тальцах,Иркутский,0,1,все_yandex_отфильровано_обединено_нормировано_25_03_2024.csv,музей;достопримечательность,1,51.996019,104.66497,1,Point,,Культурно-познавательный
"Иркутская область, Слюдянский район, Кругобайкальская железная дорога, остановочный пункт Старая Ангасолка",Культурно-познавательный туризм,Культурно-познавательный,385,Музей Рерихов,Слюдянский,0,1,все_yandex_отфильровано_обединено_нормировано_25_03_2024.csv,музей,1,51.732358,103.828729,1,Point,,Культурно-познавательный
"Пионерская ул., 29/2, п. г. т. Новая Игирма",Культурно-познавательный туризм,Культурно-познавательный,386,МКУК Историко -художественный музей им. академика М. К. Янгеля,Нижнеилимский,0,1,все_yandex_отфильровано_обединено_нормировано_25_03_2024.csv,музей,1,57.144372,103.923975,1,Point,,Культурно-познавательный
"75А, 2-й квартал, Железногорск-Илимский",Культурно-познавательный туризм,Культурно-познавательный,387,Краеведческий отдел МКУК Историко-Художественный музей им. академика М. К. Янгеля,Нижнеилимский,0,1,все_yandex_отфильровано_обединено_нормировано_25_03_2024.csv,музей,1,56.57882,104.126896,1,Point,,Культурно-познавательный
"ул. Карла Маркса, 67, Усть-Илимск",Культурно-познавательный туризм,Культурно-познавательный,388,Краеведческий музей,Усть-Илимский,1,1,все_yandex_отфильровано_обединено_нормировано_25_03_2024.csv,музей,1,57.932447,102.715774,1,Point,,Культурно-познавательный
"Железнодорожная ул., 22, Слюдянка",Культурно-познавательный туризм,Культурно-познавательный,389,Музей истории ВСЖД,Слюдянский,2,0,все_yandex_отфильровано_обединено_нормировано_25_03_2024.csv,музей,0,51.654637,103.726749,1,Point,383.0,Культурно-познавательный
"Вокзальная ул., 12, поселок Байкал (порт)",Культурно-познавательный туризм,Культурно-познавательный,390,Музей Кругобайкальской железной дороги,Слюдянский,0,1,все_yandex_отфильровано_обединено_нормировано_25_03_2024.csv,музей,1,51.87023,104.809536,1,Point,,Культурно-познавательный
"ул. Ленина, 27, Нижнеудинск",Культурно-познавательный туризм,Культурно-познавательный,391,Нижнеудинский краеведческий музей,Нижнеудинский,0,1,все_yandex_отфильровано_обединено_нормировано_25_03_2024.csv,музей,1,54.906714,99.032942,1,Point,,Культурно-познавательный
"ул. Ференца Патаки, 1, Черемхово",Культурно-познавательный туризм,Культурно-познавательный,392,Музей истории города Черемхово,Черемховский,1,1,все_yandex_отфильровано_обединено_нормировано_25_03_2024.csv,музей,1,53.13796,103.087671,1,Point,,Культурно-познавательный
"Иркутская область, Черемхово, микрорайон Ленинский",Культурно-познавательный туризм,Культурно-познавательный,393,Музей военной техники под открытым небом,Черемховский,0,1,все_yandex_отфильровано_обединено_нормировано_25_03_2024.csv,музей,1,53.13698,103.087375,1,Point,,Культурно-познавательный
